[
  {
    "id": "uruq-bani-maarid",
    "name": "‘Uruq Bani Ma'arid",
    "unescoId": 1699
  },
  {
    "id": "18th-century-royal-palace-at-caserta-with-the-park-the-aqued",
    "name": "18th-Century Royal Palace at Caserta with the Park, the Aqueduct of Vanvitelli, and the San Leucio Complex",
    "unescoId": 549,
    "country": "Italy",
    "countryCode": "IT",
    "type": "Cultural",
    "region": "Europe and North America",
    "lat": 41.07333,
    "lng": 14.32639
  },
  {
    "id": "aachen-cathedral",
    "name": "Aachen Cathedral",
    "unescoId": 3,
    "country": "Germany",
    "countryCode": "DE",
    "type": "Cultural",
    "region": "Europe and North America",
    "lat": 50.77444444,
    "lng": 6.084444444,
    "year": 1978
  },
  {
    "id": "aapravasi-ghat",
    "name": "Aapravasi Ghat",
    "unescoId": 1227,
    "country": "Mauritius",
    "countryCode": "MU",
    "type": "Cultural",
    "region": "Africa",
    "lat": -20.1586388889,
    "lng": 57.5031666666
  },
  {
    "id": "aasivissuit-nipisat-inuit-hunting-ground-between-ice-and-sea",
    "name": "Aasivissuit – Nipisat. Inuit Hunting Ground between Ice and Sea",
    "unescoId": 1557
  },
  {
    "id": "abbey-and-altenmnster-of-lorsch",
    "name": "Abbey and Altenmünster of Lorsch",
    "unescoId": 515,
    "country": "Germany",
    "countryCode": "DE",
    "type": "Cultural",
    "region": "Europe and North America",
    "lat": 49.65369,
    "lng": 8.56858
  },
  {
    "id": "abbey-church-of-saint-savin-sur-gartempe",
    "name": "Abbey Church of Saint-Savin sur Gartempe",
    "unescoId": 230,
    "country": "France",
    "countryCode": "FR",
    "type": "Cultural",
    "region": "Europe and North America",
    "lat": 46.56472,
    "lng": 0.86611
  },
  {
    "id": "abbey-of-st-gall",
    "name": "Abbey of St Gall",
    "unescoId": 268,
    "country": "Switzerland",
    "countryCode": "CH",
    "type": "Cultural",
    "region": "Europe and North America",
    "lat": 47.42333,
    "lng": 9.37778
  },
  {
    "id": "abu-mena",
    "name": "Abu Mena",
    "unescoId": 90,
    "country": "Egypt",
    "countryCode": "EG",
    "type": "Cultural",
    "region": "Arab States",
    "lat": 30.85,
    "lng": 29.66666667
  },
  {
    "id": "acropolis-athens",
    "name": "Acropolis, Athens",
    "unescoId": 404,
    "country": "Greece",
    "countryCode": "GR",
    "type": "Cultural",
    "region": "Europe and North America",
    "lat": 37.97087,
    "lng": 23.72618,
    "year": 1987
  },
  {
    "id": "aflaj-irrigation-systems-of-oman",
    "name": "Aflaj Irrigation Systems of Oman",
    "unescoId": 1207,
    "country": "Oman",
    "countryCode": "OM",
    "type": "Cultural",
    "region": "Arab States",
    "lat": 22.9988888889,
    "lng": 57.5360555555
  },
  {
    "id": "agave-landscape-and-ancient-industrial-facilities-of-tequila",
    "name": "Agave Landscape and Ancient Industrial Facilities of Tequila",
    "unescoId": 1209,
    "country": "Mexico",
    "countryCode": "MX",
    "type": "Cultural",
    "region": "Latin America and the Caribbean",
    "lat": 20.8630555555,
    "lng": -103.7786111111
  },
  {
    "id": "agra-fort",
    "name": "Agra Fort",
    "unescoId": 251,
    "country": "India",
    "countryCode": "IN",
    "type": "Cultural",
    "region": "Asia and the Pacific",
    "lat": 27.18333333,
    "lng": 78.03333333
  },
  {
    "id": "agricultural-landscape-of-southern-land",
    "name": "Agricultural Landscape of Southern Öland",
    "unescoId": 968,
    "country": "Sweden",
    "countryCode": "SE",
    "type": "Cultural",
    "region": "Europe and North America",
    "lat": 56.325,
    "lng": 16.48333
  },
  {
    "id": "air-and-tnr-natural-reserves",
    "name": "Air and Ténéré Natural Reserves",
    "unescoId": 573,
    "country": "Niger",
    "countryCode": "NE",
    "type": "Natural",
    "region": "Africa",
    "lat": 18,
    "lng": 9
  },
  {
    "id": "ajanta-caves",
    "name": "Ajanta Caves",
    "unescoId": 242,
    "country": "India",
    "countryCode": "IN",
    "type": "Cultural",
    "region": "Asia and the Pacific",
    "lat": 20.55333,
    "lng": 75.7,
    "year": 1983
  },
  {
    "id": "aksum",
    "name": "Aksum",
    "unescoId": 15,
    "country": "Ethiopia",
    "countryCode": "ET",
    "type": "Cultural",
    "region": "Africa",
    "lat": 14.13019,
    "lng": 38.71861
  },
  {
    "id": "al-qala-of-beni-hammad",
    "name": "Al Qal'a of Beni Hammad",
    "unescoId": 102,
    "country": "Algeria",
    "countryCode": "DZ",
    "type": "Cultural",
    "region": "Arab States",
    "lat": 35.81844,
    "lng": 4.78684
  },
  {
    "id": "al-zubarah-archaeological-site",
    "name": "Al Zubarah Archaeological Site",
    "unescoId": 1402,
    "country": "Qatar",
    "countryCode": "QA",
    "type": "Cultural",
    "region": "Arab States",
    "lat": 25.9780555556,
    "lng": 51.0297222222
  },
  {
    "id": "al-ahsa-oasis-an-evolving-cultural-landscape",
    "name": "Al-Ahsa Oasis, an Evolving Cultural Landscape",
    "unescoId": 1563
  },
  {
    "id": "aldabra-atoll",
    "name": "Aldabra Atoll",
    "unescoId": 185,
    "country": "Seychelles",
    "countryCode": "SC",
    "type": "Natural",
    "region": "Africa",
    "lat": -9.416666667,
    "lng": 46.41666667
  },
  {
    "id": "alejandro-de-humboldt-national-park",
    "name": "Alejandro de Humboldt National Park",
    "unescoId": 839,
    "country": "Cuba",
    "countryCode": "CU",
    "type": "Natural",
    "region": "Latin America and the Caribbean",
    "lat": 20.45,
    "lng": -75
  },
  {
    "id": "alhambra-generalife-and-albayzn-granada",
    "name": "Alhambra, Generalife and Albayzín, Granada",
    "unescoId": 314,
    "country": "Spain",
    "countryCode": "ES",
    "type": "Cultural",
    "region": "Europe and North America",
    "lat": 37.17667,
    "lng": -3.59444,
    "year": 1984
  },
  {
    "id": "alto-douro-wine-region",
    "name": "Alto Douro Wine Region",
    "unescoId": 1046,
    "country": "Portugal",
    "countryCode": "PT",
    "type": "Cultural",
    "region": "Europe and North America",
    "lat": 41.10166667,
    "lng": -7.798888889
  },
  {
    "id": "amami-oshima-island-tokunoshima-island-northern-part-of-okin",
    "name": "Amami-Oshima Island, Tokunoshima Island, Northern part of Okinawa Island, and Iriomote Island",
    "unescoId": 1574
  },
  {
    "id": "amiens-cathedral",
    "name": "Amiens Cathedral",
    "unescoId": 162,
    "country": "France",
    "countryCode": "FR",
    "type": "Cultural",
    "region": "Europe and North America",
    "lat": 49.895,
    "lng": 2.301666667
  },
  {
    "id": "amphitheatre-of-el-jem",
    "name": "Amphitheatre of El Jem",
    "unescoId": 38,
    "country": "Tunisia",
    "countryCode": "TN",
    "type": "Cultural",
    "region": "Arab States",
    "lat": 35.29639,
    "lng": 10.70694
  },
  {
    "id": "ancient-and-primeval-beech-forests-of-the-carpathians-and-ot",
    "name": "Ancient and Primeval Beech Forests of the Carpathians and Other Regions of Europe",
    "unescoId": 1133
  },
  {
    "id": "ancient-building-complex-in-the-wudang-mountains",
    "name": "Ancient Building Complex in the Wudang Mountains",
    "unescoId": 705,
    "country": "China",
    "countryCode": "CN",
    "type": "Cultural",
    "region": "Asia and the Pacific",
    "lat": 32.46667,
    "lng": 111
  },
  {
    "id": "ancient-city-of-aleppo",
    "name": "Ancient City of Aleppo",
    "unescoId": 21,
    "country": "Syrian Arab Republic",
    "countryCode": "SY",
    "type": "Cultural",
    "region": "Arab States",
    "lat": 36.23333,
    "lng": 37.16667
  },
  {
    "id": "ancient-city-of-bosra",
    "name": "Ancient City of Bosra",
    "unescoId": 22,
    "country": "Syrian Arab Republic",
    "countryCode": "SY",
    "type": "Cultural",
    "region": "Arab States",
    "lat": 32.51806,
    "lng": 36.48167
  },
  {
    "id": "ancient-city-of-damascus",
    "name": "Ancient City of Damascus",
    "unescoId": 20,
    "country": "Syrian Arab Republic",
    "countryCode": "SY",
    "type": "Cultural",
    "region": "Arab States",
    "lat": 33.51139,
    "lng": 36.30639
  },
  {
    "id": "ancient-city-of-nessebar",
    "name": "Ancient City of Nessebar",
    "unescoId": 217,
    "country": "Bulgaria",
    "countryCode": "BG",
    "type": "Cultural",
    "region": "Europe and North America",
    "lat": 42.65611,
    "lng": 27.73
  },
  {
    "id": "ancient-city-of-ping-yao",
    "name": "Ancient City of Ping Yao",
    "unescoId": 812,
    "country": "China",
    "countryCode": "CN",
    "type": "Cultural",
    "region": "Asia and the Pacific",
    "lat": 37.20139,
    "lng": 112.15444
  },
  {
    "id": "ancient-city-of-polonnaruwa",
    "name": "Ancient City of Polonnaruwa",
    "unescoId": 201,
    "country": "Sri Lanka",
    "countryCode": "LK",
    "type": "Cultural",
    "region": "Asia and the Pacific",
    "lat": 7.915833333,
    "lng": 81.00055556
  },
  {
    "id": "ancient-city-of-qalhat",
    "name": "Ancient City of Qalhat",
    "unescoId": 1537
  },
  {
    "id": "ancient-city-of-sigiriya",
    "name": "Ancient City of Sigiriya",
    "unescoId": 202,
    "country": "Sri Lanka",
    "countryCode": "LK",
    "type": "Cultural",
    "region": "Asia and the Pacific",
    "lat": 7.95,
    "lng": 80.75
  },
  {
    "id": "ancient-city-of-tauric-chersonese-and-its-chora",
    "name": "Ancient City of Tauric Chersonese and its Chora",
    "unescoId": 1411,
    "country": "Ukraine",
    "countryCode": "UA",
    "type": "Cultural",
    "region": "Europe and North America",
    "lat": 44.6108333333,
    "lng": 33.4913888889
  },
  {
    "id": "ancient-ferrous-metallurgy-sites-of-burkina-faso",
    "name": "Ancient Ferrous Metallurgy Sites of Burkina Faso",
    "unescoId": 1602
  },
  {
    "id": "ancient-jerichotell-es-sultan",
    "name": "Ancient Jericho/Tell es-Sultan",
    "unescoId": 1687
  },
  {
    "id": "ancient-ksour-of-ouadane-chinguetti-tichitt-and-oualata",
    "name": "Ancient Ksour of Ouadane, Chinguetti, Tichitt and Oualata",
    "unescoId": 750,
    "country": "Mauritania",
    "countryCode": "MR",
    "type": "Cultural",
    "region": "Arab States",
    "lat": 20.92889,
    "lng": -11.62361
  },
  {
    "id": "ancient-maya-city-and-protected-tropical-forests-of-calakmul",
    "name": "Ancient Maya City and Protected Tropical Forests of Calakmul, Campeche",
    "unescoId": 1061,
    "country": "Mexico",
    "countryCode": "MX",
    "type": "Mixed",
    "region": "Latin America and the Caribbean",
    "lat": 18.0530277778,
    "lng": -89.7372833333
  },
  {
    "id": "ancient-thebes-with-its-necropolis",
    "name": "Ancient Thebes with its Necropolis",
    "unescoId": 87,
    "country": "Egypt",
    "countryCode": "EG",
    "type": "Cultural",
    "region": "Arab States",
    "lat": 25.73333,
    "lng": 32.6
  },
  {
    "id": "ancient-villages-in-southern-anhui-xidi-and-hongcun",
    "name": "Ancient Villages in Southern Anhui – Xidi and Hongcun",
    "unescoId": 1002,
    "country": "China",
    "countryCode": "CN",
    "type": "Cultural",
    "region": "Asia and the Pacific",
    "lat": 29.90444444,
    "lng": 117.9875
  },
  {
    "id": "ancient-villages-of-northern-syria",
    "name": "Ancient Villages of Northern Syria",
    "unescoId": 1348,
    "country": "Syrian Arab Republic",
    "countryCode": "SY",
    "type": "Cultural",
    "region": "Arab States",
    "lat": 36.3341666667,
    "lng": 36.8441666667
  },
  {
    "id": "andrefana-dry-forests",
    "name": "Andrefana Dry Forests",
    "unescoId": 494,
    "country": "Madagascar",
    "countryCode": "MG",
    "type": "Natural",
    "region": "Africa",
    "lat": -18.66667,
    "lng": 44.75
  },
  {
    "id": "angkor",
    "name": "Angkor",
    "unescoId": 668,
    "country": "Cambodia",
    "countryCode": "KH",
    "type": "Cultural",
    "region": "Asia and the Pacific",
    "lat": 13.43333333,
    "lng": 103.8333333,
    "year": 1992
  },
  {
    "id": "anjar",
    "name": "Anjar",
    "unescoId": 293,
    "country": "Lebanon",
    "countryCode": "LB",
    "type": "Cultural",
    "region": "Arab States",
    "lat": 33.72583,
    "lng": 35.92972
  },
  {
    "id": "antequera-dolmens-site",
    "name": "Antequera Dolmens Site",
    "unescoId": 1501,
    "country": "Spain",
    "countryCode": "ES",
    "type": "Cultural",
    "region": "Europe and North America",
    "lat": 37.025,
    "lng": -4.5444444444
  },
  {
    "id": "anticosti",
    "name": "Anticosti",
    "unescoId": 1686
  },
  {
    "id": "antigua-guatemala",
    "name": "Antigua Guatemala",
    "unescoId": 65,
    "country": "Guatemala",
    "countryCode": "GT",
    "type": "Cultural",
    "region": "Latin America and the Caribbean",
    "lat": 14.56666667,
    "lng": -90.66666667
  },
  {
    "id": "antigua-naval-dockyard-and-related-archaeological-sites",
    "name": "Antigua Naval Dockyard and Related Archaeological Sites",
    "unescoId": 1499,
    "country": "Antigua and Barbuda",
    "countryCode": "AG",
    "type": "Cultural",
    "region": "Latin America and the Caribbean",
    "lat": 17.0069444444,
    "lng": -61.7616666667
  },
  {
    "id": "aphrodisias",
    "name": "Aphrodisias",
    "unescoId": 1519
  },
  {
    "id": "aqueduct-of-padre-tembleque-hydraulic-system",
    "name": "Aqueduct of Padre Tembleque Hydraulic System",
    "unescoId": 1463,
    "country": "Mexico",
    "countryCode": "MX",
    "type": "Cultural",
    "region": "Latin America and the Caribbean",
    "lat": 19.8352777778,
    "lng": -98.6625666667
  },
  {
    "id": "arab-norman-palermo-and-the-cathedral-churches-of-cefal-and-",
    "name": "Arab-Norman Palermo and the Cathedral Churches of Cefalú and Monreale",
    "unescoId": 1487,
    "country": "Italy",
    "countryCode": "IT",
    "type": "Cultural",
    "region": "Europe and North America",
    "lat": 38.1108333333,
    "lng": 13.3530555556
  },
  {
    "id": "aranjuez-cultural-landscape",
    "name": "Aranjuez Cultural Landscape",
    "unescoId": 1044,
    "country": "Spain",
    "countryCode": "ES",
    "type": "Cultural",
    "region": "Europe and North America",
    "lat": 40.03645,
    "lng": -3.60934
  },
  {
    "id": "archaeological-area-and-the-patriarchal-basilica-of-aquileia",
    "name": "Archaeological Area and the Patriarchal Basilica of Aquileia",
    "unescoId": 825,
    "country": "Italy",
    "countryCode": "IT",
    "type": "Cultural",
    "region": "Europe and North America",
    "lat": 45.76833333,
    "lng": 13.3675
  },
  {
    "id": "archaeological-area-of-agrigento",
    "name": "Archaeological Area of Agrigento",
    "unescoId": 831,
    "country": "Italy",
    "countryCode": "IT",
    "type": "Cultural",
    "region": "Europe and North America",
    "lat": 37.28972222,
    "lng": 13.59333333
  },
  {
    "id": "archaeological-areas-of-pompei-herculaneum-and-torre-annunzi",
    "name": "Archaeological Areas of Pompei, Herculaneum and Torre Annunziata",
    "unescoId": 829,
    "country": "Italy",
    "countryCode": "IT",
    "type": "Cultural",
    "region": "Europe and North America",
    "lat": 40.75,
    "lng": 14.48333333,
    "year": 1997
  },
  {
    "id": "archaeological-border-complex-of-hedeby-and-the-danevirke",
    "name": "Archaeological Border complex of Hedeby and the Danevirke",
    "unescoId": 1553
  },
  {
    "id": "archaeological-ensemble-of-mrida",
    "name": "Archaeological Ensemble of Mérida",
    "unescoId": 664,
    "country": "Spain",
    "countryCode": "ES",
    "type": "Cultural",
    "region": "Europe and North America",
    "lat": 38.91611,
    "lng": -6.33778
  },
  {
    "id": "archaeological-ensemble-of-tarraco",
    "name": "Archaeological Ensemble of Tarraco",
    "unescoId": 875,
    "country": "Spain",
    "countryCode": "ES",
    "type": "Cultural",
    "region": "Europe and North America",
    "lat": 41.11472222,
    "lng": 1.259305556
  },
  {
    "id": "archaeological-heritage-of-the-lenggong-valley",
    "name": "Archaeological Heritage of the Lenggong Valley",
    "unescoId": 1396,
    "country": "Malaysia",
    "countryCode": "MY",
    "type": "Cultural",
    "region": "Asia and the Pacific",
    "lat": 5.0679083333,
    "lng": 100.9723277778
  },
  {
    "id": "archaeological-landscape-of-the-first-coffee-plantations-in-",
    "name": "Archaeological Landscape of the First Coffee Plantations in the South-East of Cuba",
    "unescoId": 1008,
    "country": "Cuba",
    "countryCode": "CU",
    "type": "Cultural",
    "region": "Latin America and the Caribbean",
    "lat": 20.03,
    "lng": -75.39138889
  },
  {
    "id": "archaeological-monuments-zone-of-xochicalco",
    "name": "Archaeological Monuments Zone of Xochicalco",
    "unescoId": 939,
    "country": "Mexico",
    "countryCode": "MX",
    "type": "Cultural",
    "region": "Latin America and the Caribbean",
    "lat": 18.81028,
    "lng": -99.275
  },
  {
    "id": "archaeological-park-and-ruins-of-quirigua",
    "name": "Archaeological Park and Ruins of Quirigua",
    "unescoId": 149,
    "country": "Guatemala",
    "countryCode": "GT",
    "type": "Cultural",
    "region": "Latin America and the Caribbean",
    "lat": 15.27059,
    "lng": -89.04025
  },
  {
    "id": "archaeological-ruins-at-moenjodaro",
    "name": "Archaeological Ruins at Moenjodaro",
    "unescoId": 138,
    "country": "Pakistan",
    "countryCode": "PK",
    "type": "Cultural",
    "region": "Asia and the Pacific",
    "lat": 27.32916667,
    "lng": 68.13888889
  },
  {
    "id": "archaeological-ruins-of-liangzhu-city",
    "name": "Archaeological Ruins of Liangzhu City",
    "unescoId": 1592
  },
  {
    "id": "archaeological-site-of-aigai-modern-name-vergina",
    "name": "Archaeological Site of Aigai (modern name Vergina)",
    "unescoId": 780,
    "country": "Greece",
    "countryCode": "GR",
    "type": "Cultural",
    "region": "Europe and North America",
    "lat": 40.47139,
    "lng": 22.31833
  },
  {
    "id": "archaeological-site-of-ani",
    "name": "Archaeological Site of Ani",
    "unescoId": 1518,
    "country": "Turkey",
    "countryCode": "TR",
    "type": "Cultural",
    "region": "Europe and North America",
    "lat": 40.5,
    "lng": 43.5666666667
  },
  {
    "id": "archaeological-site-of-atapuerca",
    "name": "Archaeological Site of Atapuerca",
    "unescoId": 989,
    "country": "Spain",
    "countryCode": "ES",
    "type": "Cultural",
    "region": "Europe and North America",
    "lat": 42.37138889,
    "lng": -3.547222222
  },
  {
    "id": "archaeological-site-of-carthage",
    "name": "Archaeological Site of Carthage",
    "unescoId": 37,
    "country": "Tunisia",
    "countryCode": "TN",
    "type": "Cultural",
    "region": "Arab States",
    "lat": 36.85278,
    "lng": 10.32333
  },
  {
    "id": "archaeological-site-of-cyrene",
    "name": "Archaeological Site of Cyrene",
    "unescoId": 190,
    "country": "Libya",
    "countryCode": "LY",
    "type": "Cultural",
    "region": "Arab States",
    "lat": 32.825,
    "lng": 21.85833
  },
  {
    "id": "archaeological-site-of-delphi",
    "name": "Archaeological Site of Delphi",
    "unescoId": 393,
    "country": "Greece",
    "countryCode": "GR",
    "type": "Cultural",
    "region": "Europe and North America",
    "lat": 38.48149,
    "lng": 22.49617,
    "year": 1987
  },
  {
    "id": "archaeological-site-of-leptis-magna",
    "name": "Archaeological Site of Leptis Magna",
    "unescoId": 183,
    "country": "Libya",
    "countryCode": "LY",
    "type": "Cultural",
    "region": "Arab States",
    "lat": 32.63833,
    "lng": 14.29306
  },
  {
    "id": "archaeological-site-of-mystras",
    "name": "Archaeological Site of Mystras",
    "unescoId": 511,
    "country": "Greece",
    "countryCode": "GR",
    "type": "Cultural",
    "region": "Europe and North America",
    "lat": 37.08056,
    "lng": 22.36667
  },
  {
    "id": "archaeological-site-of-nalanda-mahavihara-at-nalanda-bihar",
    "name": "Archaeological Site of Nalanda Mahavihara at Nalanda, Bihar",
    "unescoId": 1502,
    "country": "India",
    "countryCode": "IN",
    "type": "Cultural",
    "region": "Asia and the Pacific",
    "lat": 25.1366666667,
    "lng": 85.4438888889
  },
  {
    "id": "archaeological-site-of-olympia",
    "name": "Archaeological Site of Olympia",
    "unescoId": 517,
    "country": "Greece",
    "countryCode": "GR",
    "type": "Cultural",
    "region": "Europe and North America",
    "lat": 37.65,
    "lng": 21.66666667,
    "year": 1989
  },
  {
    "id": "archaeological-site-of-philippi",
    "name": "Archaeological Site of Philippi",
    "unescoId": 1517,
    "country": "Greece",
    "countryCode": "GR",
    "type": "Cultural",
    "region": "Europe and North America",
    "lat": 41.0147222222,
    "lng": 24.2852777778
  },
  {
    "id": "archaeological-site-of-sabratha",
    "name": "Archaeological Site of Sabratha",
    "unescoId": 184,
    "country": "Libya",
    "countryCode": "LY",
    "type": "Cultural",
    "region": "Arab States",
    "lat": 32.80528,
    "lng": 12.485
  },
  {
    "id": "archaeological-site-of-troy",
    "name": "Archaeological Site of Troy",
    "unescoId": 849,
    "country": "Turkey",
    "countryCode": "TR",
    "type": "Cultural",
    "region": "Europe and North America",
    "lat": 39.95644,
    "lng": 26.239,
    "year": 1998
  },
  {
    "id": "archaeological-site-of-volubilis",
    "name": "Archaeological Site of Volubilis",
    "unescoId": 836,
    "country": "Morocco",
    "countryCode": "MA",
    "type": "Cultural",
    "region": "Arab States",
    "lat": 34.07389,
    "lng": -5.55694
  },
  {
    "id": "archaeological-sites-of-bat-al-khutm-and-al-ayn",
    "name": "Archaeological Sites of Bat, Al-Khutm and Al-Ayn",
    "unescoId": 434,
    "country": "Oman",
    "countryCode": "OM",
    "type": "Cultural",
    "region": "Arab States",
    "lat": 23.26986,
    "lng": 56.745
  },
  {
    "id": "archaeological-sites-of-mycenae-and-tiryns",
    "name": "Archaeological Sites of Mycenae and Tiryns",
    "unescoId": 941,
    "country": "Greece",
    "countryCode": "GR",
    "type": "Cultural",
    "region": "Europe and North America",
    "lat": 37.73333333,
    "lng": 22.75
  },
  {
    "id": "archaeological-sites-of-the-island-of-meroe",
    "name": "Archaeological Sites of the Island of Meroe",
    "unescoId": 1336,
    "country": "Sudan",
    "countryCode": "SD",
    "type": "Cultural",
    "region": "Arab States",
    "lat": 16.9333333333,
    "lng": 33.7166666667
  },
  {
    "id": "archaeological-zone-of-paquim-casas-grandes",
    "name": "Archaeological Zone of Paquimé, Casas Grandes",
    "unescoId": 560,
    "country": "Mexico",
    "countryCode": "MX",
    "type": "Cultural",
    "region": "Latin America and the Caribbean",
    "lat": 30.37583,
    "lng": -107.95556
  },
  {
    "id": "archipilago-de-revillagigedo",
    "name": "Archipiélago de Revillagigedo",
    "unescoId": 1510,
    "country": "Mexico",
    "countryCode": "MX",
    "type": "Natural",
    "region": "Latin America and the Caribbean",
    "lat": 18.7880555556,
    "lng": -110.9752777778
  },
  {
    "id": "architectural-ensemble-of-the-trinity-sergius-lavra-in-sergi",
    "name": "Architectural Ensemble of the Trinity Sergius Lavra in Sergiev Posad",
    "unescoId": 657,
    "country": "Russian Federation",
    "countryCode": "RU",
    "type": "Cultural",
    "region": "Europe and North America",
    "lat": 56.31035,
    "lng": 38.1312
  },
  {
    "id": "architectural-residential-and-cultural-complex-of-the-radziw",
    "name": "Architectural, Residential and Cultural Complex of the Radziwill Family at Nesvizh",
    "unescoId": 1196,
    "country": "Belarus",
    "countryCode": "BY",
    "type": "Cultural",
    "region": "Europe and North America",
    "lat": 53.22278,
    "lng": 26.69139
  },
  {
    "id": "area-de-conservacin-guanacaste",
    "name": "Area de Conservación Guanacaste",
    "unescoId": 928,
    "country": "Costa Rica",
    "countryCode": "CR",
    "type": "Natural",
    "region": "Latin America and the Caribbean",
    "lat": 10.85,
    "lng": -85.61666667
  },
  {
    "id": "arles-roman-and-romanesque-monuments",
    "name": "Arles, Roman and Romanesque Monuments",
    "unescoId": 164,
    "country": "France",
    "countryCode": "FR",
    "type": "Cultural",
    "region": "Europe and North America",
    "lat": 43.67763889,
    "lng": 4.630694444
  },
  {
    "id": "armenian-monastic-ensembles-of-iran",
    "name": "Armenian Monastic Ensembles of Iran",
    "unescoId": 1262,
    "country": "Iran (Islamic Republic of)",
    "countryCode": "IR",
    "type": "Cultural",
    "region": "Asia and the Pacific",
    "lat": 38.9788888889,
    "lng": 45.4733333333
  },
  {
    "id": "arslantepe-mound",
    "name": "Arslantepe Mound",
    "unescoId": 1622
  },
  {
    "id": "as-salt---the-place-of-tolerance-and-urban-hospitality",
    "name": "As-Salt - The Place of Tolerance and Urban Hospitality",
    "unescoId": 689
  },
  {
    "id": "asante-traditional-buildings",
    "name": "Asante Traditional Buildings",
    "unescoId": 35,
    "country": "Ghana",
    "countryCode": "GH",
    "type": "Cultural",
    "region": "Africa",
    "lat": 6.4011111111,
    "lng": -1.6258333333
  },
  {
    "id": "ashur-qalat-sherqat",
    "name": "Ashur (Qal'at Sherqat)",
    "unescoId": 1130,
    "country": "Iraq",
    "countryCode": "IQ",
    "type": "Cultural",
    "region": "Arab States",
    "lat": 35.45889,
    "lng": 43.25972
  },
  {
    "id": "asmara-a-modernist-african-city",
    "name": "Asmara: A Modernist African City",
    "unescoId": 1550
  },
  {
    "id": "assisi-the-basilica-of-san-francesco-and-other-franciscan-si",
    "name": "Assisi, the Basilica of San Francesco and Other Franciscan Sites",
    "unescoId": 990,
    "country": "Italy",
    "countryCode": "IT",
    "type": "Cultural",
    "region": "Europe and North America",
    "lat": 43.06616667,
    "lng": 12.62244444
  },
  {
    "id": "assumption-cathedral-and-monastery-of-the-town-island-of-svi",
    "name": "Assumption Cathedral and Monastery of the town-island of Sviyazhsk",
    "unescoId": 1525
  },
  {
    "id": "astronomical-observatories-of-kazan-federal-university",
    "name": "Astronomical Observatories of Kazan Federal University",
    "unescoId": 1678
  },
  {
    "id": "at-turaif-district-in-ad-diriyah",
    "name": "At-Turaif District in ad-Dir'iyah",
    "unescoId": 1329,
    "country": "Saudi Arabia",
    "countryCode": "SA",
    "type": "Cultural",
    "region": "Arab States",
    "lat": 24.7341333333,
    "lng": 46.5724666667
  },
  {
    "id": "atlantic-forest-south-east-reserves",
    "name": "Atlantic Forest South-East Reserves",
    "unescoId": 893,
    "country": "Brazil",
    "countryCode": "BR",
    "type": "Natural",
    "region": "Latin America and the Caribbean",
    "lat": -24.16667,
    "lng": -48
  },
  {
    "id": "auschwitz-birkenau-german-nazi-concentration-and-exterminati",
    "name": "Auschwitz Birkenau German Nazi Concentration and Extermination Camp (1940-1945)",
    "unescoId": 31,
    "country": "Poland",
    "countryCode": "PL",
    "type": "Cultural",
    "region": "Europe and North America",
    "lat": 50.0388888889,
    "lng": 19.175
  },
  {
    "id": "australian-convict-sites",
    "name": "Australian Convict Sites",
    "unescoId": 1306,
    "country": "Australia",
    "countryCode": "AU",
    "type": "Cultural",
    "region": "Asia and the Pacific",
    "lat": -33.3783333333,
    "lng": 150.9944444444
  },
  {
    "id": "australian-fossil-mammal-sites-riversleigh-naracoorte",
    "name": "Australian Fossil Mammal Sites (Riversleigh / Naracoorte)",
    "unescoId": 698,
    "country": "Australia",
    "countryCode": "AU",
    "type": "Natural",
    "region": "Asia and the Pacific",
    "lat": -19.08333333,
    "lng": 138.7166667
  },
  {
    "id": "baalbek",
    "name": "Baalbek",
    "unescoId": 294,
    "country": "Lebanon",
    "countryCode": "LB",
    "type": "Cultural",
    "region": "Arab States",
    "lat": 34.00707,
    "lng": 36.20494,
    "year": 1984
  },
  {
    "id": "babylon",
    "name": "Babylon",
    "unescoId": 278
  },
  {
    "id": "badain-jaran-desert---towers-of-sand-and-lakes",
    "name": "Badain Jaran Desert - Towers of Sand and Lakes",
    "unescoId": 1638
  },
  {
    "id": "baekje-historic-areas",
    "name": "Baekje Historic Areas",
    "unescoId": 1477,
    "country": "Republic of Korea",
    "countryCode": "KR",
    "type": "Cultural",
    "region": "Asia and the Pacific",
    "lat": 36.4619444444,
    "lng": 127.1272222222
  },
  {
    "id": "bagan",
    "name": "Bagan",
    "unescoId": 1588,
    "country": "Myanmar",
    "countryCode": "MM",
    "type": "Cultural",
    "lat": 21.1717,
    "lng": 94.8585,
    "year": 2019
  },
  {
    "id": "bahi-holy-places-in-haifa-and-the-western-galilee",
    "name": "Bahá'i Holy Places in Haifa and the Western Galilee",
    "unescoId": 1220,
    "country": "Israel",
    "countryCode": "IL",
    "type": "Cultural",
    "region": "Europe and North America",
    "lat": 32.8293966667,
    "lng": 34.9716488888
  },
  {
    "id": "bahla-fort",
    "name": "Bahla Fort",
    "unescoId": 433,
    "country": "Oman",
    "countryCode": "OM",
    "type": "Cultural",
    "region": "Arab States",
    "lat": 22.96417,
    "lng": 57.30111
  },
  {
    "id": "bale-mountains-national-park",
    "name": "Bale Mountains National Park",
    "unescoId": 111
  },
  {
    "id": "bam-and-its-cultural-landscape",
    "name": "Bam and its Cultural Landscape",
    "unescoId": 1208,
    "country": "Iran (Islamic Republic of)",
    "countryCode": "IR",
    "type": "Cultural",
    "region": "Asia and the Pacific",
    "lat": 29.11683,
    "lng": 58.3666666667
  },
  {
    "id": "ban-chiang-archaeological-site",
    "name": "Ban Chiang Archaeological Site",
    "unescoId": 575,
    "country": "Thailand",
    "countryCode": "TH",
    "type": "Cultural",
    "region": "Asia and the Pacific",
    "lat": 17.54861,
    "lng": 103.35833
  },
  {
    "id": "banc-darguin-national-park",
    "name": "Banc d'Arguin National Park",
    "unescoId": 506,
    "country": "Mauritania",
    "countryCode": "MR",
    "type": "Natural",
    "region": "Arab States",
    "lat": 20.23472,
    "lng": -16.10889
  },
  {
    "id": "baptism-site-bethany-beyond-the-jordan-al-maghtas",
    "name": "Baptism Site \"Bethany Beyond the Jordan” (Al-Maghtas)",
    "unescoId": 1446,
    "country": "Jordan",
    "countryCode": "JO",
    "type": "Cultural",
    "region": "Arab States",
    "lat": 31.8372222222,
    "lng": 35.5527777778
  },
  {
    "id": "barberton-makhonjwa-mountains",
    "name": "Barberton Makhonjwa Mountains",
    "unescoId": 1575
  },
  {
    "id": "bardejov-town-conservation-reserve",
    "name": "Bardejov Town Conservation Reserve",
    "unescoId": 973,
    "country": "Slovakia",
    "countryCode": "SK",
    "type": "Cultural",
    "region": "Europe and North America",
    "lat": 49.29333,
    "lng": 21.27917
  },
  {
    "id": "baroque-churches-of-the-philippines",
    "name": "Baroque Churches of the Philippines",
    "unescoId": 677,
    "country": "Philippines",
    "countryCode": "PH",
    "type": "Cultural",
    "region": "Asia and the Pacific",
    "lat": 14.59,
    "lng": 120.97
  },
  {
    "id": "bassari-country-bassari-fula-and-bedik-cultural-landscapes",
    "name": "Bassari Country: Bassari, Fula and Bedik Cultural Landscapes",
    "unescoId": 1407,
    "country": "Senegal",
    "countryCode": "SN",
    "type": "Cultural",
    "region": "Africa",
    "lat": 12.5933333333,
    "lng": -12.8458333333
  },
  {
    "id": "bauhaus-and-its-sites-in-weimar-dessau-and-bernau",
    "name": "Bauhaus and its Sites in Weimar, Dessau and Bernau",
    "unescoId": 729,
    "country": "Germany",
    "countryCode": "DE",
    "type": "Cultural",
    "region": "Europe and North America",
    "lat": 50.97477,
    "lng": 11.32949
  },
  {
    "id": "beijing-central-axis-a-building-ensemble-exhibiting-the-idea",
    "name": "Beijing Central Axis: A Building Ensemble Exhibiting the Ideal Order of the Chinese Capital",
    "unescoId": 1714
  },
  {
    "id": "belfries-of-belgium-and-france",
    "name": "Belfries of Belgium and France",
    "unescoId": 943,
    "country": "Belgium,France",
    "countryCode": "BE,FR",
    "type": "Cultural",
    "region": "Europe and North America",
    "lat": 50.17444,
    "lng": 3.23139
  },
  {
    "id": "belize-barrier-reef-reserve-system",
    "name": "Belize Barrier Reef Reserve System",
    "unescoId": 764,
    "country": "Belize",
    "countryCode": "BZ",
    "type": "Natural",
    "region": "Latin America and the Caribbean",
    "lat": 16.75,
    "lng": -87.05833333
  },
  {
    "id": "benedictine-convent-of-st-john-at-mstair",
    "name": "Benedictine Convent of St John at Müstair",
    "unescoId": 269,
    "country": "Switzerland",
    "countryCode": "CH",
    "type": "Cultural",
    "region": "Europe and North America",
    "lat": 46.62945,
    "lng": 10.44765
  },
  {
    "id": "bergpark-wilhelmshhe",
    "name": "Bergpark Wilhelmshöhe",
    "unescoId": 1413,
    "country": "Germany",
    "countryCode": "DE",
    "type": "Cultural",
    "region": "Europe and North America",
    "lat": 51.3158333333,
    "lng": 9.3930555556
  },
  {
    "id": "berlin-modernism-housing-estates",
    "name": "Berlin Modernism Housing Estates",
    "unescoId": 1239
  },
  {
    "id": "biaowiea-forest",
    "name": "Białowieża Forest",
    "unescoId": 33,
    "country": "Belarus,Poland",
    "countryCode": "BY,PL",
    "type": "Natural",
    "region": "Europe and North America",
    "lat": 52.7275,
    "lng": 23.9811111111
  },
  {
    "id": "biblical-tels---megiddo-hazor-beer-sheba",
    "name": "Biblical Tels - Megiddo, Hazor, Beer Sheba",
    "unescoId": 1108,
    "country": "Israel",
    "countryCode": "IL",
    "type": "Cultural",
    "region": "Europe and North America",
    "lat": 32.59722,
    "lng": 35.18222
  },
  {
    "id": "bikini-atoll-nuclear-test-site",
    "name": "Bikini Atoll Nuclear Test Site",
    "unescoId": 1339,
    "country": "Marshall Islands",
    "countryCode": "MH",
    "type": "Cultural",
    "region": "Asia and the Pacific",
    "lat": 11.6,
    "lng": 165.3805555556
  },
  {
    "id": "birka-and-hovgrden",
    "name": "Birka and Hovgården",
    "unescoId": 555,
    "country": "Sweden",
    "countryCode": "SE",
    "type": "Cultural",
    "region": "Europe and North America",
    "lat": 59.33514,
    "lng": 17.54264
  },
  {
    "id": "birthplace-of-jesus-church-of-the-nativity-and-the-pilgrimag",
    "name": "Birthplace of Jesus: Church of the Nativity and the Pilgrimage Route, Bethlehem",
    "unescoId": 1433,
    "country": "Palestine",
    "countryCode": "PS",
    "type": "Cultural",
    "region": "Arab States",
    "lat": 31.7043527778,
    "lng": 35.2075
  },
  {
    "id": "bisotun",
    "name": "Bisotun",
    "unescoId": 1222,
    "country": "Iran (Islamic Republic of)",
    "countryCode": "IR",
    "type": "Cultural",
    "region": "Asia and the Pacific",
    "lat": 34.3883333333,
    "lng": 47.4366666666
  },
  {
    "id": "blaenavon-industrial-landscape",
    "name": "Blaenavon Industrial Landscape",
    "unescoId": 984,
    "country": "United Kingdom of Great Britain and Northern Ireland",
    "countryCode": "GB",
    "type": "Cultural",
    "region": "Europe and North America",
    "lat": 51.77638889,
    "lng": -3.088055556
  },
  {
    "id": "blenheim-palace",
    "name": "Blenheim Palace",
    "unescoId": 425,
    "country": "United Kingdom of Great Britain and Northern Ireland",
    "countryCode": "GB",
    "type": "Cultural",
    "region": "Europe and North America",
    "lat": 51.84194444,
    "lng": -1.361388889,
    "year": 1987
  },
  {
    "id": "blue-and-john-crow-mountains",
    "name": "Blue and John Crow Mountains",
    "unescoId": 1356,
    "country": "Jamaica",
    "countryCode": "JM",
    "type": "Mixed",
    "region": "Latin America and the Caribbean",
    "lat": 18.0775,
    "lng": -76.5711111111
  },
  {
    "id": "bolgar-historical-and-archaeological-complex",
    "name": "Bolgar Historical and Archaeological Complex",
    "unescoId": 981,
    "country": "Russian Federation",
    "countryCode": "RU",
    "type": "Cultural",
    "region": "Europe and North America",
    "lat": 54.9788888889,
    "lng": 49.0563888889
  },
  {
    "id": "bordeaux-port-of-the-moon",
    "name": "Bordeaux, Port of the Moon",
    "unescoId": 1256,
    "country": "France",
    "countryCode": "FR",
    "type": "Cultural",
    "region": "Europe and North America",
    "lat": 44.8388888889,
    "lng": -0.5722222222,
    "year": 2007
  },
  {
    "id": "borobudur-temple-compounds",
    "name": "Borobudur Temple Compounds",
    "unescoId": 592,
    "country": "Indonesia",
    "countryCode": "ID",
    "type": "Cultural",
    "region": "Asia and the Pacific",
    "lat": -7.60778,
    "lng": 110.20361,
    "year": 1991
  },
  {
    "id": "botanical-garden-orto-botanico-padua",
    "name": "Botanical Garden (Orto Botanico), Padua",
    "unescoId": 824,
    "country": "Italy",
    "countryCode": "IT",
    "type": "Cultural",
    "region": "Europe and North America",
    "lat": 45.39911111,
    "lng": 11.88066667
  },
  {
    "id": "bourges-cathedral",
    "name": "Bourges Cathedral",
    "unescoId": 635,
    "country": "France",
    "countryCode": "FR",
    "type": "Cultural",
    "region": "Europe and North America",
    "lat": 47.08222222,
    "lng": 2.398333333
  },
  {
    "id": "boyana-church",
    "name": "Boyana Church",
    "unescoId": 42,
    "country": "Bulgaria",
    "countryCode": "BG",
    "type": "Cultural",
    "region": "Europe and North America",
    "lat": 42.65,
    "lng": 23.26666667
  },
  {
    "id": "brncui-monumental-ensemble-of-trgu-jiu",
    "name": "Brâncuși Monumental Ensemble of Târgu Jiu",
    "unescoId": 1473
  },
  {
    "id": "brasilia",
    "name": "Brasilia",
    "unescoId": 445,
    "country": "Brazil",
    "countryCode": "BR",
    "type": "Cultural",
    "region": "Latin America and the Caribbean",
    "lat": -15.78333,
    "lng": -47.9
  },
  {
    "id": "brazilian-atlantic-islands-fernando-de-noronha-and-atol-das-",
    "name": "Brazilian Atlantic Islands: Fernando de Noronha and Atol das Rocas Reserves",
    "unescoId": 1000,
    "country": "Brazil",
    "countryCode": "BR",
    "type": "Natural",
    "region": "Latin America and the Caribbean",
    "lat": -3.857944444,
    "lng": -32.42511111
  },
  {
    "id": "brimstone-hill-fortress-national-park",
    "name": "Brimstone Hill Fortress National Park",
    "unescoId": 910,
    "country": "Saint Kitts and Nevis",
    "countryCode": "KN",
    "type": "Cultural",
    "region": "Latin America and the Caribbean",
    "lat": 17.34694,
    "lng": -62.83722
  },
  {
    "id": "bronze-age-burial-site-of-sammallahdenmki",
    "name": "Bronze Age Burial Site of Sammallahdenmäki",
    "unescoId": 579,
    "country": "Finland",
    "countryCode": "FI",
    "type": "Cultural",
    "region": "Europe and North America",
    "lat": 61.12056,
    "lng": 21.7775
  },
  {
    "id": "br-na-binne---archaeological-ensemble-of-the-bend-of-the-boy",
    "name": "Brú na Bóinne - Archaeological Ensemble of the Bend of the Boyne",
    "unescoId": 659,
    "country": "Ireland",
    "countryCode": "IE",
    "type": "Cultural",
    "region": "Europe and North America",
    "lat": 53.69167,
    "lng": -6.45
  },
  {
    "id": "bryggen",
    "name": "Bryggen",
    "unescoId": 59,
    "country": "Norway",
    "countryCode": "NO",
    "type": "Cultural",
    "region": "Europe and North America",
    "lat": 60.39722,
    "lng": 5.32306,
    "year": 1979
  },
  {
    "id": "budapest-including-the-banks-of-the-danube-the-buda-castle-q",
    "name": "Budapest, including the Banks of the Danube, the Buda Castle Quarter and Andrássy Avenue",
    "unescoId": 400,
    "country": "Hungary",
    "countryCode": "HU",
    "type": "Cultural",
    "region": "Europe and North America",
    "lat": 47.48242,
    "lng": 19.07067
  },
  {
    "id": "buddhist-monuments-at-sanchi",
    "name": "Buddhist Monuments at Sanchi",
    "unescoId": 524,
    "country": "India",
    "countryCode": "IN",
    "type": "Cultural",
    "region": "Asia and the Pacific",
    "lat": 23.47944,
    "lng": 77.73972
  },
  {
    "id": "buddhist-monuments-in-the-horyu-ji-area",
    "name": "Buddhist Monuments in the Horyu-ji Area",
    "unescoId": 660,
    "country": "Japan",
    "countryCode": "JP",
    "type": "Cultural",
    "region": "Asia and the Pacific",
    "lat": 34.61666667,
    "lng": 135.7333333
  },
  {
    "id": "buddhist-ruins-of-takht-i-bahi-and-neighbouring-city-remains",
    "name": "Buddhist Ruins of Takht-i-Bahi and Neighbouring City Remains at Sahr-i-Bahlol",
    "unescoId": 140
  },
  {
    "id": "budj-bim-cultural-landscape",
    "name": "Budj Bim Cultural Landscape",
    "unescoId": 1577
  },
  {
    "id": "burgos-cathedral",
    "name": "Burgos Cathedral",
    "unescoId": 316,
    "country": "Spain",
    "countryCode": "ES",
    "type": "Cultural",
    "region": "Europe and North America",
    "lat": 42.3405277778,
    "lng": -3.7048138889
  },
  {
    "id": "bursa-and-cumalkzk-the-birth-of-the-ottoman-empire",
    "name": "Bursa and Cumalıkızık: the Birth of the Ottoman Empire",
    "unescoId": 1452,
    "country": "Turkey",
    "countryCode": "TR",
    "type": "Cultural",
    "region": "Europe and North America",
    "lat": 40.1847305556,
    "lng": 29.0623361111
  },
  {
    "id": "butrint",
    "name": "Butrint",
    "unescoId": 570,
    "country": "Albania",
    "countryCode": "AL",
    "type": "Cultural",
    "region": "Europe and North America",
    "lat": 39.75111111,
    "lng": 20.02611111
  },
  {
    "id": "bwindi-impenetrable-national-park",
    "name": "Bwindi Impenetrable National Park",
    "unescoId": 682,
    "country": "Uganda",
    "countryCode": "UG",
    "type": "Natural",
    "region": "Africa",
    "lat": -1.080555556,
    "lng": 29.66138889
  },
  {
    "id": "byblos",
    "name": "Byblos",
    "unescoId": 295,
    "country": "Lebanon",
    "countryCode": "LB",
    "type": "Cultural",
    "region": "Arab States",
    "lat": 34.11917,
    "lng": 35.6475,
    "year": 1984
  },
  {
    "id": "cahokia-mounds-state-historic-site",
    "name": "Cahokia Mounds State Historic Site",
    "unescoId": 198,
    "country": "United States of America",
    "countryCode": "US",
    "type": "Cultural",
    "region": "Europe and North America",
    "lat": 38.65861111,
    "lng": -90.06138889
  },
  {
    "id": "caliphate-city-of-medina-azahara",
    "name": "Caliphate City of Medina Azahara",
    "unescoId": 1560
  },
  {
    "id": "cambodian-memorial-sites-from-centres-of-repression-to-place",
    "name": "Cambodian Memorial Sites: From centres of repression to places of peace and reflection",
    "unescoId": 1748
  },
  {
    "id": "camino-real-de-tierra-adentro",
    "name": "Camino Real de Tierra Adentro",
    "unescoId": 1351,
    "country": "Mexico",
    "countryCode": "MX",
    "type": "Cultural",
    "region": "Latin America and the Caribbean",
    "lat": 22.6080555556,
    "lng": -102.3791666667
  },
  {
    "id": "canadian-rocky-mountain-parks",
    "name": "Canadian Rocky Mountain Parks",
    "unescoId": 304,
    "country": "Canada",
    "countryCode": "CA",
    "type": "Natural",
    "region": "Europe and North America",
    "lat": 51.42472222,
    "lng": -116.4797222,
    "year": 1984
  },
  {
    "id": "canaima-national-park",
    "name": "Canaima National Park",
    "unescoId": 701,
    "country": "Venezuela (Bolivarian Republic of)",
    "countryCode": "VE",
    "type": "Natural",
    "region": "Latin America and the Caribbean",
    "lat": 5.33333,
    "lng": -61.5
  },
  {
    "id": "canal-du-midi",
    "name": "Canal du Midi",
    "unescoId": 770,
    "country": "France",
    "countryCode": "FR",
    "type": "Cultural",
    "region": "Europe and North America",
    "lat": 43.61138889,
    "lng": 1.416388889
  },
  {
    "id": "canterbury-cathedral-st-augustines-abbey-and-st-martins-chur",
    "name": "Canterbury Cathedral, St Augustine's Abbey, and St Martin's Church",
    "unescoId": 496,
    "country": "United Kingdom of Great Britain and Northern Ireland",
    "countryCode": "GB",
    "type": "Cultural",
    "region": "Europe and North America",
    "lat": 51.28,
    "lng": 1.083333333,
    "year": 1988
  },
  {
    "id": "cape-floral-region-protected-areas",
    "name": "Cape Floral Region Protected Areas",
    "unescoId": 1007,
    "country": "South Africa",
    "countryCode": "ZA",
    "type": "Natural",
    "region": "Africa",
    "lat": -34.3611111111,
    "lng": 18.475
  },
  {
    "id": "capital-cities-and-tombs-of-the-ancient-koguryo-kingdom",
    "name": "Capital Cities and Tombs of the Ancient Koguryo Kingdom",
    "unescoId": 1135,
    "country": "China",
    "countryCode": "CN",
    "type": "Cultural",
    "region": "Asia and the Pacific",
    "lat": 41.15694444,
    "lng": 126.1872222
  },
  {
    "id": "carlsbad-caverns-national-park",
    "name": "Carlsbad Caverns National Park",
    "unescoId": 721,
    "country": "United States of America",
    "countryCode": "US",
    "type": "Natural",
    "region": "Europe and North America",
    "lat": 32.16666667,
    "lng": -104.3833333
  },
  {
    "id": "carolingian-westwork-and-civitas-corvey",
    "name": "Carolingian Westwork and Civitas Corvey",
    "unescoId": 1447,
    "country": "Germany",
    "countryCode": "DE",
    "type": "Cultural",
    "region": "Europe and North America",
    "lat": 51.7782777778,
    "lng": 9.41025
  },
  {
    "id": "castel-del-monte",
    "name": "Castel del Monte",
    "unescoId": 398,
    "country": "Italy",
    "countryCode": "IT",
    "type": "Cultural",
    "region": "Europe and North America",
    "lat": 41.08480556,
    "lng": 16.27094444
  },
  {
    "id": "castle-of-the-teutonic-order-in-malbork",
    "name": "Castle of the Teutonic Order in Malbork",
    "unescoId": 847,
    "country": "Poland",
    "countryCode": "PL",
    "type": "Cultural",
    "region": "Europe and North America",
    "lat": 54.04166667,
    "lng": 19.03333333
  },
  {
    "id": "castles-and-town-walls-of-king-edward-in-gwynedd",
    "name": "Castles and Town Walls of King Edward in Gwynedd",
    "unescoId": 374,
    "country": "United Kingdom of Great Britain and Northern Ireland",
    "countryCode": "GB",
    "type": "Cultural",
    "region": "Europe and North America",
    "lat": 53.13972222,
    "lng": -4.276944444
  },
  {
    "id": "castles-of-augustusburg-and-falkenlust-at-brhl",
    "name": "Castles of Augustusburg and Falkenlust at Brühl",
    "unescoId": 288,
    "country": "Germany",
    "countryCode": "DE",
    "type": "Cultural",
    "region": "Europe and North America",
    "lat": 50.82502778,
    "lng": 6.909777778
  },
  {
    "id": "catalan-romanesque-churches-of-the-vall-de-bo",
    "name": "Catalan Romanesque Churches of the Vall de Boí",
    "unescoId": 988,
    "country": "Spain",
    "countryCode": "ES",
    "type": "Cultural",
    "region": "Europe and North America",
    "lat": 42.50472222,
    "lng": 0.803611111
  },
  {
    "id": "cathedral-and-churches-of-echmiatsin-and-the-archaeological-",
    "name": "Cathedral and Churches of Echmiatsin and the Archaeological Site of Zvartnots",
    "unescoId": 1011,
    "country": "Armenia",
    "countryCode": "AM",
    "type": "Cultural",
    "region": "Europe and North America",
    "lat": 40.15931,
    "lng": 44.29514
  },
  {
    "id": "cathedral-of-notre-dame-former-abbey-of-saint-rmi-and-palace",
    "name": "Cathedral of Notre-Dame, Former Abbey of Saint-Rémi and Palace of Tau, Reims",
    "unescoId": 601,
    "country": "France",
    "countryCode": "FR",
    "type": "Cultural",
    "region": "Europe and North America",
    "lat": 49.25333333,
    "lng": 4.032777778
  },
  {
    "id": "cathedral-alczar-and-archivo-de-indias-in-seville",
    "name": "Cathedral, Alcázar and Archivo de Indias in Seville",
    "unescoId": 383,
    "country": "Spain",
    "countryCode": "ES",
    "type": "Cultural",
    "region": "Europe and North America",
    "lat": 37.38384,
    "lng": -5.99155,
    "year": 1987
  },
  {
    "id": "cathedral-torre-civica-and-piazza-grande-modena",
    "name": "Cathedral, Torre Civica and Piazza Grande, Modena",
    "unescoId": 827,
    "country": "Italy",
    "countryCode": "IT",
    "type": "Cultural",
    "region": "Europe and North America",
    "lat": 44.64624,
    "lng": 10.92568
  },
  {
    "id": "cave-of-altamira-and-paleolithic-cave-art-of-northern-spain",
    "name": "Cave of Altamira and Paleolithic Cave Art of Northern Spain",
    "unescoId": 310,
    "country": "Spain",
    "countryCode": "ES",
    "type": "Cultural",
    "region": "Europe and North America",
    "lat": 43.38252778,
    "lng": -4.116166667
  },
  {
    "id": "caves-and-ice-age-art-in-the-swabian-jura",
    "name": "Caves and Ice Age Art in the Swabian Jura",
    "unescoId": 1527
  },
  {
    "id": "caves-of-aggtelek-karst-and-slovak-karst",
    "name": "Caves of Aggtelek Karst and Slovak Karst",
    "unescoId": 725,
    "country": "Hungary,Slovakia",
    "countryCode": "HU,SK",
    "type": "Natural",
    "region": "Europe and North America",
    "lat": 48.47573,
    "lng": 20.48687
  },
  {
    "id": "caves-of-maresha-and-bet-guvrin-in-the-judean-lowlands-as-a-",
    "name": "Caves of Maresha and Bet-Guvrin in the Judean Lowlands as a Microcosm of the Land of the Caves",
    "unescoId": 1370,
    "country": "Israel",
    "countryCode": "IL",
    "type": "Cultural",
    "region": "Europe and North America",
    "lat": 31.6,
    "lng": 34.8955555556
  },
  {
    "id": "centennial-hall-in-wrocaw",
    "name": "Centennial Hall in Wrocław",
    "unescoId": 1165,
    "country": "Poland",
    "countryCode": "PL",
    "type": "Cultural",
    "region": "Europe and North America",
    "lat": 51.1069472222,
    "lng": 17.0770138888
  },
  {
    "id": "central-amazon-conservation-complex",
    "name": "Central Amazon Conservation Complex",
    "unescoId": 998,
    "country": "Brazil",
    "countryCode": "BR",
    "type": "Natural",
    "region": "Latin America and the Caribbean",
    "lat": -2.333333333,
    "lng": -62.00833333
  },
  {
    "id": "central-highlands-of-sri-lanka",
    "name": "Central Highlands of Sri Lanka",
    "unescoId": 1203,
    "country": "Sri Lanka",
    "countryCode": "LK",
    "type": "Natural",
    "region": "Asia and the Pacific",
    "lat": 7.45245,
    "lng": 80.8021
  },
  {
    "id": "central-sector-of-the-imperial-citadel-of-thang-long---hanoi",
    "name": "Central Sector of the Imperial Citadel of Thang Long - Hanoi",
    "unescoId": 1328,
    "country": "Viet Nam",
    "countryCode": "VN",
    "type": "Cultural",
    "region": "Asia and the Pacific",
    "lat": 21.0394444444,
    "lng": 105.8372222222
  },
  {
    "id": "central-sikhote-alin",
    "name": "Central Sikhote-Alin",
    "unescoId": 766,
    "country": "Russian Federation",
    "countryCode": "RU",
    "type": "Natural",
    "region": "Europe and North America",
    "lat": 45.33333333,
    "lng": 136.1666667
  },
  {
    "id": "central-suriname-nature-reserve",
    "name": "Central Suriname Nature Reserve",
    "unescoId": 1017,
    "country": "Suriname",
    "countryCode": "SR",
    "type": "Natural",
    "region": "Latin America and the Caribbean",
    "lat": 4,
    "lng": -56.5
  },
  {
    "id": "central-university-city-campus-of-the-universidad-nacional-a",
    "name": "Central University City Campus of the Universidad Nacional Autónoma de México (UNAM)",
    "unescoId": 1250,
    "country": "Mexico",
    "countryCode": "MX",
    "type": "Cultural",
    "region": "Latin America and the Caribbean",
    "lat": 19.3322222222,
    "lng": -99.1880555555
  },
  {
    "id": "central-zone-of-the-town-of-angra-do-heroismo-in-the-azores",
    "name": "Central Zone of the Town of Angra do Heroismo in the Azores",
    "unescoId": 206,
    "country": "Portugal",
    "countryCode": "PT",
    "type": "Cultural",
    "region": "Europe and North America",
    "lat": 38.655,
    "lng": -27.22
  },
  {
    "id": "cerrado-protected-areas-chapada-dos-veadeiros-and-emas-natio",
    "name": "Cerrado Protected Areas: Chapada dos Veadeiros and Emas National Parks",
    "unescoId": 1035,
    "country": "Brazil",
    "countryCode": "BR",
    "type": "Natural",
    "region": "Latin America and the Caribbean",
    "lat": -14.00569444,
    "lng": -47.68461111
  },
  {
    "id": "chaco-culture",
    "name": "Chaco Culture",
    "unescoId": 353,
    "country": "United States of America",
    "countryCode": "US",
    "type": "Cultural",
    "region": "Europe and North America",
    "lat": 36.06377778,
    "lng": -107.9708333
  },
  {
    "id": "chane-des-puys---limagne-fault-tectonic-arena",
    "name": "Chaîne des Puys - Limagne fault tectonic arena",
    "unescoId": 1434
  },
  {
    "id": "champagne-hillsides-houses-and-cellars",
    "name": "Champagne Hillsides, Houses and Cellars",
    "unescoId": 1465,
    "country": "France",
    "countryCode": "FR",
    "type": "Cultural",
    "region": "Europe and North America",
    "lat": 49.0775,
    "lng": 3.9461111111
  },
  {
    "id": "champaner-pavagadh-archaeological-park",
    "name": "Champaner-Pavagadh Archaeological Park",
    "unescoId": 1101,
    "country": "India",
    "countryCode": "IN",
    "type": "Cultural",
    "region": "Asia and the Pacific",
    "lat": 22.48333333,
    "lng": 73.53333333
  },
  {
    "id": "chan-chan-archaeological-zone",
    "name": "Chan Chan Archaeological Zone",
    "unescoId": 366,
    "country": "Peru",
    "countryCode": "PE",
    "type": "Cultural",
    "region": "Latin America and the Caribbean",
    "lat": -8.1,
    "lng": -79.08333
  },
  {
    "id": "changdeokgung-palace-complex",
    "name": "Changdeokgung Palace Complex",
    "unescoId": 816,
    "country": "Republic of Korea",
    "countryCode": "KR",
    "type": "Cultural",
    "region": "Asia and the Pacific",
    "lat": 37.55,
    "lng": 126.9833333
  },
  {
    "id": "chankillo-archaeoastronomical-complex",
    "name": "Chankillo Archaeoastronomical Complex",
    "unescoId": 1624
  },
  {
    "id": "chartres-cathedral",
    "name": "Chartres Cathedral",
    "unescoId": 81,
    "country": "France",
    "countryCode": "FR",
    "type": "Cultural",
    "region": "Europe and North America",
    "lat": 48.4475,
    "lng": 1.487222222,
    "year": 1979
  },
  {
    "id": "chavin-archaeological-site",
    "name": "Chavin (Archaeological Site)",
    "unescoId": 330,
    "country": "Peru",
    "countryCode": "PE",
    "type": "Cultural",
    "region": "Latin America and the Caribbean",
    "lat": -9.5927725444,
    "lng": -77.1784535027
  },
  {
    "id": "chengjiang-fossil-site",
    "name": "Chengjiang Fossil Site",
    "unescoId": 1388,
    "country": "China",
    "countryCode": "CN",
    "type": "Natural",
    "region": "Asia and the Pacific",
    "lat": 24.6688888889,
    "lng": 102.9772222222
  },
  {
    "id": "chhatrapati-shivaji-terminus-formerly-victoria-terminus",
    "name": "Chhatrapati Shivaji Terminus (formerly Victoria Terminus)",
    "unescoId": 945,
    "country": "India",
    "countryCode": "IN",
    "type": "Cultural",
    "region": "Asia and the Pacific",
    "lat": 18.9401222222,
    "lng": 72.8362027777
  },
  {
    "id": "chief-roi-matas-domain",
    "name": "Chief Roi Mata's Domain",
    "unescoId": 1280,
    "country": "Vanuatu",
    "countryCode": "VU",
    "type": "Cultural",
    "region": "Asia and the Pacific",
    "lat": -17.6280694444,
    "lng": 168.1777194444
  },
  {
    "id": "china-danxia",
    "name": "China Danxia",
    "unescoId": 1335,
    "country": "China",
    "countryCode": "CN",
    "type": "Natural",
    "region": "Asia and the Pacific",
    "lat": 28.4219444444,
    "lng": 106.0425
  },
  {
    "id": "chiribiquete-national-park-the-maloca-of-the-jaguar",
    "name": "Chiribiquete National Park – \"The Maloca of the Jaguar”",
    "unescoId": 1174
  },
  {
    "id": "chitwan-national-park",
    "name": "Chitwan National Park",
    "unescoId": 284,
    "country": "Nepal",
    "countryCode": "NP",
    "type": "Natural",
    "region": "Asia and the Pacific",
    "lat": 27.5,
    "lng": 84.33333
  },
  {
    "id": "choirokoitia",
    "name": "Choirokoitia",
    "unescoId": 848,
    "country": "Cyprus",
    "countryCode": "CY",
    "type": "Cultural",
    "region": "Europe and North America",
    "lat": 34.79833,
    "lng": 33.34333
  },
  {
    "id": "chongoni-rock-art-area",
    "name": "Chongoni Rock-Art Area",
    "unescoId": 476,
    "country": "Malawi",
    "countryCode": "MW",
    "type": "Cultural",
    "region": "Africa",
    "lat": -14.2933333333,
    "lng": 34.2791666666
  },
  {
    "id": "church-and-dominican-convent-of-santa-maria-delle-grazie-wit",
    "name": "Church and Dominican Convent of Santa Maria delle Grazie with \"The Last Supper” by Leonardo da Vinci",
    "unescoId": 93,
    "country": "Italy",
    "countryCode": "IT",
    "type": "Cultural",
    "region": "Europe and North America",
    "lat": 45.46588889,
    "lng": 9.1705
  },
  {
    "id": "church-of-the-ascension-kolomenskoye",
    "name": "Church of the Ascension, Kolomenskoye",
    "unescoId": 634,
    "country": "Russian Federation",
    "countryCode": "RU",
    "type": "Cultural",
    "region": "Europe and North America",
    "lat": 55.65556,
    "lng": 37.67389
  },
  {
    "id": "church-town-of-gammelstad-lule",
    "name": "Church Town of Gammelstad, Luleå",
    "unescoId": 762,
    "country": "Sweden",
    "countryCode": "SE",
    "type": "Cultural",
    "region": "Europe and North America",
    "lat": 65.64611,
    "lng": 22.02861
  },
  {
    "id": "churches-and-convents-of-goa",
    "name": "Churches and Convents of Goa",
    "unescoId": 234,
    "country": "India",
    "countryCode": "IN",
    "type": "Cultural",
    "region": "Asia and the Pacific",
    "lat": 15.50222,
    "lng": 73.91167
  },
  {
    "id": "churches-of-chilo",
    "name": "Churches of Chiloé",
    "unescoId": 971,
    "country": "Chile",
    "countryCode": "CL",
    "type": "Cultural",
    "region": "Latin America and the Caribbean",
    "lat": -42.5,
    "lng": -73.76666667
  },
  {
    "id": "churches-of-moldavia",
    "name": "Churches of Moldavia",
    "unescoId": 598,
    "country": "Romania",
    "countryCode": "RO",
    "type": "Cultural",
    "region": "Europe and North America",
    "lat": 47.7783333333,
    "lng": 25.7127777778
  },
  {
    "id": "churches-of-peace-in-jawor-and-widnica",
    "name": "Churches of Peace in Jawor and Świdnica",
    "unescoId": 1054,
    "country": "Poland",
    "countryCode": "PL",
    "type": "Cultural",
    "region": "Europe and North America",
    "lat": 51.05427778,
    "lng": 16.19594444
  },
  {
    "id": "churches-of-the-pskov-school-of-architecture",
    "name": "Churches of the Pskov School of Architecture",
    "unescoId": 1523
  },
  {
    "id": "cidade-velha-historic-centre-of-ribeira-grande",
    "name": "Cidade Velha, Historic Centre of Ribeira Grande",
    "unescoId": 1310,
    "country": "Cabo Verde",
    "countryCode": "CV",
    "type": "Cultural",
    "region": "Africa",
    "lat": 14.9151388889,
    "lng": -23.6051944444
  },
  {
    "id": "cilento-and-vallo-di-diano-national-park-with-the-archeologi",
    "name": "Cilento and Vallo di Diano National Park with the Archeological Sites of Paestum and Velia, and the Certosa di Padula",
    "unescoId": 842,
    "country": "Italy",
    "countryCode": "IT",
    "type": "Cultural",
    "region": "Europe and North America",
    "lat": 40.28333333,
    "lng": 15.26666667
  },
  {
    "id": "cistercian-abbey-of-fontenay",
    "name": "Cistercian Abbey of Fontenay",
    "unescoId": 165,
    "country": "France",
    "countryCode": "FR",
    "type": "Cultural",
    "region": "Europe and North America",
    "lat": 47.63944,
    "lng": 4.38911
  },
  {
    "id": "citadel-of-the-ho-dynasty",
    "name": "Citadel of the Ho Dynasty",
    "unescoId": 1358,
    "country": "Viet Nam",
    "countryCode": "VN",
    "type": "Cultural",
    "region": "Asia and the Pacific",
    "lat": 20.0780555556,
    "lng": 105.6047222222
  },
  {
    "id": "citadel-ancient-city-and-fortress-buildings-of-derbent",
    "name": "Citadel, Ancient City and Fortress Buildings of Derbent",
    "unescoId": 1070,
    "country": "Russian Federation",
    "countryCode": "RU",
    "type": "Cultural",
    "region": "Europe and North America",
    "lat": 42.05297222,
    "lng": 48.29719444
  },
  {
    "id": "city-of-bath",
    "name": "City of Bath",
    "unescoId": 428,
    "country": "United Kingdom of Great Britain and Northern Ireland",
    "countryCode": "GB",
    "type": "Cultural",
    "region": "Europe and North America",
    "lat": 51.38138889,
    "lng": -2.358611111,
    "year": 1987
  },
  {
    "id": "city-of-cuzco",
    "name": "City of Cuzco",
    "unescoId": 273,
    "country": "Peru",
    "countryCode": "PE",
    "type": "Cultural",
    "region": "Latin America and the Caribbean",
    "lat": -13.52222,
    "lng": -71.98333
  },
  {
    "id": "city-of-graz-historic-centre-and-schloss-eggenberg",
    "name": "City of Graz – Historic Centre and Schloss Eggenberg",
    "unescoId": 931,
    "country": "Austria",
    "countryCode": "AT",
    "type": "Cultural",
    "region": "Europe and North America",
    "lat": 47.0741666667,
    "lng": 15.3916666667
  },
  {
    "id": "city-of-luxembourg-its-old-quarters-and-fortifications",
    "name": "City of Luxembourg: its Old Quarters and Fortifications",
    "unescoId": 699,
    "country": "Luxembourg",
    "countryCode": "LU",
    "type": "Cultural",
    "region": "Europe and North America",
    "lat": 49.61,
    "lng": 6.13333
  },
  {
    "id": "city-of-potos",
    "name": "City of Potosí",
    "unescoId": 420,
    "country": "Bolivia (Plurinational State of)",
    "countryCode": "BO",
    "type": "Cultural",
    "region": "Latin America and the Caribbean",
    "lat": -19.58361,
    "lng": -65.75306
  },
  {
    "id": "city-of-quito",
    "name": "City of Quito",
    "unescoId": 2,
    "country": "Ecuador",
    "countryCode": "EC",
    "type": "Cultural",
    "region": "Latin America and the Caribbean",
    "lat": -0.003888889,
    "lng": -78.5
  },
  {
    "id": "city-of-safranbolu",
    "name": "City of Safranbolu",
    "unescoId": 614,
    "country": "Turkey",
    "countryCode": "TR",
    "type": "Cultural",
    "region": "Europe and North America",
    "lat": 41.26,
    "lng": 32.68972
  },
  {
    "id": "city-of-valletta",
    "name": "City of Valletta",
    "unescoId": 131,
    "country": "Malta",
    "countryCode": "MT",
    "type": "Cultural",
    "region": "Europe and North America",
    "lat": 35.90056,
    "lng": 14.51444
  },
  {
    "id": "city-of-verona",
    "name": "City of Verona",
    "unescoId": 797,
    "country": "Italy",
    "countryCode": "IT",
    "type": "Cultural",
    "region": "Europe and North America",
    "lat": 45.43861111,
    "lng": 10.99388889
  },
  {
    "id": "city-of-vicenza-and-the-palladian-villas-of-the-veneto",
    "name": "City of Vicenza and the Palladian Villas of the Veneto",
    "unescoId": 712,
    "country": "Italy",
    "countryCode": "IT",
    "type": "Cultural",
    "region": "Europe and North America",
    "lat": 45.54916667,
    "lng": 11.54944444
  },
  {
    "id": "ciudad-universitaria-de-caracas",
    "name": "Ciudad Universitaria de Caracas",
    "unescoId": 986,
    "country": "Venezuela (Bolivarian Republic of)",
    "countryCode": "VE",
    "type": "Cultural",
    "region": "Latin America and the Caribbean",
    "lat": 10.49073,
    "lng": -66.89068
  },
  {
    "id": "classical-gardens-of-suzhou",
    "name": "Classical Gardens of Suzhou",
    "unescoId": 813,
    "country": "China",
    "countryCode": "CN",
    "type": "Cultural",
    "region": "Asia and the Pacific",
    "lat": 31.31666667,
    "lng": 120.45
  },
  {
    "id": "classical-weimar",
    "name": "Classical Weimar",
    "unescoId": 846,
    "country": "Germany",
    "countryCode": "DE",
    "type": "Cultural",
    "region": "Europe and North America",
    "lat": 50.9775,
    "lng": 11.32861
  },
  {
    "id": "cliff-of-bandiagara-land-of-the-dogons",
    "name": "Cliff of Bandiagara (Land of the Dogons)",
    "unescoId": 516,
    "country": "Mali",
    "countryCode": "ML",
    "type": "Mixed",
    "region": "Africa",
    "lat": 14.33333,
    "lng": -3.41667
  },
  {
    "id": "coastal-and-marine-ecosystems-of-the-bijags-archipelago-omat",
    "name": "Coastal and Marine Ecosystems of the Bijagós Archipelago – Omatí Minhô",
    "unescoId": 1431
  },
  {
    "id": "cocos-island-national-park",
    "name": "Cocos Island National Park",
    "unescoId": 820,
    "country": "Costa Rica",
    "countryCode": "CR",
    "type": "Natural",
    "region": "Latin America and the Caribbean",
    "lat": 5.533333333,
    "lng": -87.06666667
  },
  {
    "id": "coffee-cultural-landscape-of-colombia",
    "name": "Coffee Cultural Landscape of Colombia",
    "unescoId": 1121,
    "country": "Colombia",
    "countryCode": "CO",
    "type": "Cultural",
    "region": "Latin America and the Caribbean",
    "lat": 5.4716666667,
    "lng": -75.6816666667
  },
  {
    "id": "coiba-national-park-and-its-special-zone-of-marine-protectio",
    "name": "Coiba National Park and its Special Zone of Marine Protection",
    "unescoId": 1138,
    "country": "Panama",
    "countryCode": "PA",
    "type": "Natural",
    "region": "Latin America and the Caribbean",
    "lat": 7.433,
    "lng": -81.766
  },
  {
    "id": "colchic-rainforests-and-wetlands",
    "name": "Colchic Rainforests and Wetlands",
    "unescoId": 1616
  },
  {
    "id": "cold-winter-deserts-of-turan",
    "name": "Cold Winter Deserts of Turan",
    "unescoId": 1693
  },
  {
    "id": "collegiate-church-castle-and-old-town-of-quedlinburg",
    "name": "Collegiate Church, Castle and Old Town of Quedlinburg",
    "unescoId": 535,
    "country": "Germany",
    "countryCode": "DE",
    "type": "Cultural",
    "region": "Europe and North America",
    "lat": 51.78333,
    "lng": 11.15
  },
  {
    "id": "cologne-cathedral",
    "name": "Cologne Cathedral",
    "unescoId": 292,
    "country": "Germany",
    "countryCode": "DE",
    "type": "Cultural",
    "region": "Europe and North America",
    "lat": 50.94111111,
    "lng": 6.957222222,
    "year": 1996
  },
  {
    "id": "colonial-city-of-santo-domingo",
    "name": "Colonial City of Santo Domingo",
    "unescoId": 526,
    "country": "Dominican Republic",
    "countryCode": "DO",
    "type": "Cultural",
    "region": "Latin America and the Caribbean",
    "lat": 18.48333333,
    "lng": -69.91666667
  },
  {
    "id": "colonies-of-benevolence",
    "name": "Colonies of Benevolence",
    "unescoId": 1555
  },
  {
    "id": "como-national-park",
    "name": "Comoé National Park",
    "unescoId": 227
  },
  {
    "id": "complex-of-hu-monuments",
    "name": "Complex of Hué Monuments",
    "unescoId": 678,
    "country": "Viet Nam",
    "countryCode": "VN",
    "type": "Cultural",
    "region": "Asia and the Pacific",
    "lat": 16.46944,
    "lng": 107.57778,
    "year": 1993
  },
  {
    "id": "complex-of-koguryo-tombs",
    "name": "Complex of Koguryo Tombs",
    "unescoId": 1091,
    "country": "Democratic People's Republic of Korea",
    "countryCode": "KP",
    "type": "Cultural",
    "region": "Asia and the Pacific",
    "lat": 38.86305556,
    "lng": 125.415
  },
  {
    "id": "convent-of-christ-in-tomar",
    "name": "Convent of Christ in Tomar",
    "unescoId": 265,
    "country": "Portugal",
    "countryCode": "PT",
    "type": "Cultural",
    "region": "Europe and North America",
    "lat": 39.60472,
    "lng": -8.4175
  },
  {
    "id": "cordouan-lighthouse",
    "name": "Cordouan Lighthouse",
    "unescoId": 1625
  },
  {
    "id": "cornwall-and-west-devon-mining-landscape",
    "name": "Cornwall and West Devon Mining Landscape",
    "unescoId": 1215,
    "country": "United Kingdom of Great Britain and Northern Ireland",
    "countryCode": "GB",
    "type": "Cultural",
    "region": "Europe and North America",
    "lat": 50.1361111111,
    "lng": -5.3836111111
  },
  {
    "id": "coro-and-its-port",
    "name": "Coro and its Port",
    "unescoId": 658,
    "country": "Venezuela (Bolivarian Republic of)",
    "countryCode": "VE",
    "type": "Cultural",
    "region": "Latin America and the Caribbean",
    "lat": 11.4,
    "lng": -69.68333333
  },
  {
    "id": "costiera-amalfitana",
    "name": "Costiera Amalfitana",
    "unescoId": 830,
    "country": "Italy",
    "countryCode": "IT",
    "type": "Cultural",
    "region": "Europe and North America",
    "lat": 40.65,
    "lng": 14.6,
    "year": 1997
  },
  {
    "id": "crac-des-chevaliers-and-qalat-salah-el-din",
    "name": "Crac des Chevaliers and Qal'at Salah El-Din",
    "unescoId": 1229,
    "country": "Syrian Arab Republic",
    "countryCode": "SY",
    "type": "Cultural",
    "region": "Arab States",
    "lat": 34.7816666667,
    "lng": 36.2630555555
  },
  {
    "id": "crespi-dadda",
    "name": "Crespi d'Adda",
    "unescoId": 730,
    "country": "Italy",
    "countryCode": "IT",
    "type": "Cultural",
    "region": "Europe and North America",
    "lat": 45.59333,
    "lng": 9.53833
  },
  {
    "id": "cueva-de-las-manos-ro-pinturas",
    "name": "Cueva de las Manos, Río Pinturas",
    "unescoId": 936,
    "country": "Argentina",
    "countryCode": "AR",
    "type": "Cultural",
    "region": "Latin America and the Caribbean",
    "lat": -47.15,
    "lng": -70.66666667
  },
  {
    "id": "cultural-and-historic-ensemble-of-the-solovetsky-islands",
    "name": "Cultural and Historic Ensemble of the Solovetsky Islands",
    "unescoId": 632,
    "country": "Russian Federation",
    "countryCode": "RU",
    "type": "Cultural",
    "region": "Europe and North America",
    "lat": 65.08333333,
    "lng": 35.66666667
  },
  {
    "id": "cultural-heritage-sites-of-ancient-khuttal",
    "name": "Cultural Heritage Sites of Ancient Khuttal",
    "unescoId": 1627
  },
  {
    "id": "cultural-landscape-and-archaeological-remains-of-the-bamiyan",
    "name": "Cultural Landscape and Archaeological Remains of the Bamiyan Valley",
    "unescoId": 208,
    "country": "Afghanistan",
    "countryCode": "AF",
    "type": "Cultural",
    "region": "Asia and the Pacific",
    "lat": 34.84694,
    "lng": 67.82525
  },
  {
    "id": "cultural-landscape-of-bali-province-the-subak-system-as-a-ma",
    "name": "Cultural Landscape of Bali Province: the Subak System as a Manifestation of the Tri Hita Karana Philosophy",
    "unescoId": 1194,
    "country": "Indonesia",
    "countryCode": "ID",
    "type": "Cultural",
    "region": "Asia and the Pacific",
    "lat": -8.2591666667,
    "lng": 115.4027777778
  },
  {
    "id": "cultural-landscape-of-hawramanuramanat",
    "name": "Cultural Landscape of Hawraman/Uramanat",
    "unescoId": 1647
  },
  {
    "id": "cultural-landscape-of-honghe-hani-rice-terraces",
    "name": "Cultural Landscape of Honghe Hani Rice Terraces",
    "unescoId": 1111,
    "country": "China",
    "countryCode": "CN",
    "type": "Cultural",
    "region": "Asia and the Pacific",
    "lat": 23.0932777778,
    "lng": 102.7799805556
  },
  {
    "id": "cultural-landscape-of-kenozero-lake",
    "name": "Cultural Landscape of Kenozero Lake",
    "unescoId": 1688
  },
  {
    "id": "cultural-landscape-of-khinalig-people-and-k-yolu-transhumanc",
    "name": "Cultural Landscape of Khinalig People and \"Köç Yolu” Transhumance Route",
    "unescoId": 1696
  },
  {
    "id": "cultural-landscape-of-maymand",
    "name": "Cultural Landscape of Maymand",
    "unescoId": 1423,
    "country": "Iran (Islamic Republic of)",
    "countryCode": "IR",
    "type": "Cultural",
    "region": "Asia and the Pacific",
    "lat": 30.1680555556,
    "lng": 55.3755555556
  },
  {
    "id": "cultural-landscape-of-old-tea-forests-of-the-jingmai-mountai",
    "name": "Cultural Landscape of Old Tea Forests of the Jingmai Mountain in Pu'er",
    "unescoId": 1665
  },
  {
    "id": "cultural-landscape-of-sintra",
    "name": "Cultural Landscape of Sintra",
    "unescoId": 723,
    "country": "Portugal",
    "countryCode": "PT",
    "type": "Cultural",
    "region": "Europe and North America",
    "lat": 38.78333,
    "lng": -9.41667
  },
  {
    "id": "cultural-landscape-of-the-serra-de-tramuntana",
    "name": "Cultural Landscape of the Serra de Tramuntana",
    "unescoId": 1371,
    "country": "Spain",
    "countryCode": "ES",
    "type": "Cultural",
    "region": "Europe and North America",
    "lat": 39.7308333333,
    "lng": 2.6947222222
  },
  {
    "id": "cultural-sites-of-al-ain-hafit-hili-bidaa-bint-saud-and-oase",
    "name": "Cultural Sites of Al Ain (Hafit, Hili, Bidaa Bint Saud and Oases Areas)",
    "unescoId": 1343,
    "country": "United Arab Emirates",
    "countryCode": "AE",
    "type": "Cultural",
    "region": "Arab States",
    "lat": 24.0677777778,
    "lng": 55.8063888889
  },
  {
    "id": "curonian-spit",
    "name": "Curonian Spit",
    "unescoId": 994,
    "country": "Lithuania,Russian Federation",
    "countryCode": "LT,RU",
    "type": "Cultural",
    "region": "Europe and North America",
    "lat": 55.27458,
    "lng": 20.96239
  },
  {
    "id": "dacian-fortresses-of-the-orastie-mountains",
    "name": "Dacian Fortresses of the Orastie Mountains",
    "unescoId": 906,
    "country": "Romania",
    "countryCode": "RO",
    "type": "Cultural",
    "region": "Europe and North America",
    "lat": 45.62305556,
    "lng": 23.31194444
  },
  {
    "id": "danube-delta",
    "name": "Danube Delta",
    "unescoId": 588,
    "country": "Romania",
    "countryCode": "RO",
    "type": "Natural",
    "region": "Europe and North America",
    "lat": 45.08333,
    "lng": 29.5
  },
  {
    "id": "darien-national-park",
    "name": "Darien National Park",
    "unescoId": 159,
    "country": "Panama",
    "countryCode": "PA",
    "type": "Natural",
    "region": "Latin America and the Caribbean",
    "lat": 7.736111111,
    "lng": -77.54722222
  },
  {
    "id": "dazu-rock-carvings",
    "name": "Dazu Rock Carvings",
    "unescoId": 912,
    "country": "China",
    "countryCode": "CN",
    "type": "Cultural",
    "region": "Asia and the Pacific",
    "lat": 29.70111,
    "lng": 105.705
  },
  {
    "id": "decorated-cave-of-pont-darc-known-as-grotte-chauvet-pont-dar",
    "name": "Decorated Cave of Pont d'Arc, known as Grotte Chauvet-Pont d'Arc, Ardèche",
    "unescoId": 1426,
    "country": "France",
    "countryCode": "FR",
    "type": "Cultural",
    "region": "Europe and North America",
    "lat": 44.3875,
    "lng": 4.4161111111
  },
  {
    "id": "decorated-farmhouses-of-hlsingland",
    "name": "Decorated Farmhouses of Hälsingland",
    "unescoId": 1282,
    "country": "Sweden",
    "countryCode": "SE",
    "type": "Cultural",
    "region": "Europe and North America",
    "lat": 61.7072222222,
    "lng": 16.1958333333
  },
  {
    "id": "deer-stone-monuments-and-related-bronze-age-sites",
    "name": "Deer Stone Monuments and Related Bronze Age Sites",
    "unescoId": 1621
  },
  {
    "id": "delos",
    "name": "Delos",
    "unescoId": 530,
    "country": "Greece",
    "countryCode": "GR",
    "type": "Cultural",
    "region": "Europe and North America",
    "lat": 37.4,
    "lng": 25.26667,
    "year": 1990
  },
  {
    "id": "derwent-valley-mills",
    "name": "Derwent Valley Mills",
    "unescoId": 1030,
    "country": "United Kingdom of Great Britain and Northern Ireland",
    "countryCode": "GB",
    "type": "Cultural",
    "region": "Europe and North America",
    "lat": 53.02888889,
    "lng": -1.488055556
  },
  {
    "id": "desembarco-del-granma-national-park",
    "name": "Desembarco del Granma National Park",
    "unescoId": 889,
    "country": "Cuba",
    "countryCode": "CU",
    "type": "Natural",
    "region": "Latin America and the Caribbean",
    "lat": 19.88333,
    "lng": -77.63333
  },
  {
    "id": "dholavira-a-harappan-city",
    "name": "Dholavira: a Harappan City",
    "unescoId": 1645
  },
  {
    "id": "dilmun-burial-mounds",
    "name": "Dilmun Burial Mounds",
    "unescoId": 1542
  },
  {
    "id": "dinosaur-provincial-park",
    "name": "Dinosaur Provincial Park",
    "unescoId": 71,
    "country": "Canada",
    "countryCode": "CA",
    "type": "Natural",
    "region": "Europe and North America",
    "lat": 50.76777778,
    "lng": -111.4922222
  },
  {
    "id": "discovery-coast-atlantic-forest-reserves",
    "name": "Discovery Coast Atlantic Forest Reserves",
    "unescoId": 892,
    "country": "Brazil",
    "countryCode": "BR",
    "type": "Natural",
    "region": "Latin America and the Caribbean",
    "lat": -16.5,
    "lng": -39.25
  },
  {
    "id": "diy-gid-biy-cultural-landscape-of-the-mandara-mountains",
    "name": "Diy-Gid-Biy Cultural Landscape of the Mandara Mountains",
    "unescoId": 1745
  },
  {
    "id": "diyarbakr-fortress-and-hevsel-gardens-cultural-landscape",
    "name": "Diyarbakır Fortress and Hevsel Gardens Cultural Landscape",
    "unescoId": 1488,
    "country": "Turkey",
    "countryCode": "TR",
    "type": "Cultural",
    "region": "Europe and North America",
    "lat": 37.9031,
    "lng": 40.2393083333
  },
  {
    "id": "dja-faunal-reserve",
    "name": "Dja Faunal Reserve",
    "unescoId": 407,
    "country": "Cameroon",
    "countryCode": "CM",
    "type": "Natural",
    "region": "Africa",
    "lat": 3,
    "lng": 13
  },
  {
    "id": "djmila",
    "name": "Djémila",
    "unescoId": 191,
    "country": "Algeria",
    "countryCode": "DZ",
    "type": "Cultural",
    "region": "Arab States",
    "lat": 36.32056,
    "lng": 5.73667
  },
  {
    "id": "djerba-testimony-to-a-settlement-pattern-in-an-island-territ",
    "name": "Djerba: Testimony to a settlement pattern in an island territory",
    "unescoId": 1640
  },
  {
    "id": "djoudj-national-bird-sanctuary",
    "name": "Djoudj National Bird Sanctuary",
    "unescoId": 25,
    "country": "Senegal",
    "countryCode": "SN",
    "type": "Natural",
    "region": "Africa",
    "lat": 16.5,
    "lng": -16.16667
  },
  {
    "id": "doana-national-park",
    "name": "Doñana National Park",
    "unescoId": 685,
    "country": "Spain",
    "countryCode": "ES",
    "type": "Natural",
    "region": "Europe and North America",
    "lat": 36.9477,
    "lng": -6.358861
  },
  {
    "id": "dong-phayayen-khao-yai-forest-complex",
    "name": "Dong Phayayen-Khao Yai Forest Complex",
    "unescoId": 590,
    "country": "Thailand",
    "countryCode": "TH",
    "type": "Natural",
    "region": "Asia and the Pacific",
    "lat": 14.33,
    "lng": 102.05
  },
  {
    "id": "dorset-and-east-devon-coast",
    "name": "Dorset and East Devon Coast",
    "unescoId": 1029,
    "country": "United Kingdom of Great Britain and Northern Ireland",
    "countryCode": "GB",
    "type": "Natural",
    "region": "Europe and North America",
    "lat": 50.70555556,
    "lng": -2.989888889
  },
  {
    "id": "dougga-thugga",
    "name": "Dougga / Thugga",
    "unescoId": 794,
    "country": "Tunisia",
    "countryCode": "TN",
    "type": "Cultural",
    "region": "Arab States",
    "lat": 36.42361,
    "lng": 9.22028
  },
  {
    "id": "droogmakerij-de-beemster-beemster-polder",
    "name": "Droogmakerij de Beemster (Beemster Polder)",
    "unescoId": 899,
    "country": "Netherlands",
    "countryCode": "NL",
    "type": "Cultural",
    "region": "Europe and North America",
    "lat": 52.54888889,
    "lng": 4.911111111
  },
  {
    "id": "durham-castle-and-cathedral",
    "name": "Durham Castle and Cathedral",
    "unescoId": 370,
    "country": "United Kingdom of Great Britain and Northern Ireland",
    "countryCode": "GB",
    "type": "Cultural",
    "region": "Europe and North America",
    "lat": 54.77472222,
    "lng": -1.576111111
  },
  {
    "id": "durmitor-national-park",
    "name": "Durmitor National Park",
    "unescoId": 100,
    "country": "Montenegro",
    "countryCode": "ME",
    "type": "Natural",
    "region": "Europe and North America",
    "lat": 43.133,
    "lng": 19.0166
  },
  {
    "id": "dutch-water-defence-lines",
    "name": "Dutch Water Defence Lines",
    "unescoId": 759,
    "country": "Netherlands",
    "countryCode": "NL",
    "type": "Cultural",
    "region": "Europe and North America",
    "lat": 52.37444444,
    "lng": 4.893055556
  },
  {
    "id": "earliest-16th-century-monasteries-on-the-slopes-of-popocatep",
    "name": "Earliest 16th-Century Monasteries on the Slopes of Popocatepetl",
    "unescoId": 702,
    "country": "Mexico",
    "countryCode": "MX",
    "type": "Cultural",
    "region": "Latin America and the Caribbean",
    "lat": 18.93472,
    "lng": -98.89778
  },
  {
    "id": "early-christian-monuments-of-ravenna",
    "name": "Early Christian Monuments of Ravenna",
    "unescoId": 788,
    "country": "Italy",
    "countryCode": "IT",
    "type": "Cultural",
    "region": "Europe and North America",
    "lat": 44.42041667,
    "lng": 12.19625
  },
  {
    "id": "early-christian-necropolis-of-pcs-sopianae",
    "name": "Early Christian Necropolis of Pécs (Sopianae)",
    "unescoId": 853,
    "country": "Hungary",
    "countryCode": "HU",
    "type": "Cultural",
    "region": "Europe and North America",
    "lat": 46.07444,
    "lng": 18.22778
  },
  {
    "id": "east-rennell",
    "name": "East Rennell",
    "unescoId": 854,
    "country": "Solomon Islands",
    "countryCode": "SB",
    "type": "Natural",
    "region": "Asia and the Pacific",
    "lat": -11.68333,
    "lng": 160.33333
  },
  {
    "id": "ecosystem-and-relict-cultural-landscape-of-lop-okanda",
    "name": "Ecosystem and Relict Cultural Landscape of Lopé-Okanda",
    "unescoId": 1147,
    "country": "Gabon",
    "countryCode": "GA",
    "type": "Mixed",
    "region": "Africa",
    "lat": -0.5,
    "lng": 11.5
  },
  {
    "id": "eisinga-planetarium-in-franeker",
    "name": "Eisinga Planetarium in Franeker",
    "unescoId": 1683
  },
  {
    "id": "el-pinacate-and-gran-desierto-de-altar-biosphere-reserve",
    "name": "El Pinacate and Gran Desierto de Altar Biosphere Reserve",
    "unescoId": 1410,
    "country": "Mexico",
    "countryCode": "MX",
    "type": "Natural",
    "region": "Latin America and the Caribbean",
    "lat": 32,
    "lng": -113.9166666667
  },
  {
    "id": "el-tajin-pre-hispanic-city",
    "name": "El Tajin, Pre-Hispanic City",
    "unescoId": 631,
    "country": "Mexico",
    "countryCode": "MX",
    "type": "Cultural",
    "region": "Latin America and the Caribbean",
    "lat": 20.47639,
    "lng": -97.3775
  },
  {
    "id": "elephanta-caves",
    "name": "Elephanta Caves",
    "unescoId": 244,
    "country": "India",
    "countryCode": "IN",
    "type": "Cultural",
    "region": "Asia and the Pacific",
    "lat": 18.96667,
    "lng": 72.93583
  },
  {
    "id": "ellora-caves",
    "name": "Ellora Caves",
    "unescoId": 243,
    "country": "India",
    "countryCode": "IN",
    "type": "Cultural",
    "region": "Asia and the Pacific",
    "lat": 20.02639,
    "lng": 75.17917,
    "year": 1983
  },
  {
    "id": "engelsberg-ironworks",
    "name": "Engelsberg Ironworks",
    "unescoId": 556,
    "country": "Sweden",
    "countryCode": "SE",
    "type": "Cultural",
    "region": "Europe and North America",
    "lat": 59.96667,
    "lng": 16.00833
  },
  {
    "id": "ennedi-massif-natural-and-cultural-landscape",
    "name": "Ennedi Massif: Natural and Cultural Landscape",
    "unescoId": 1475,
    "country": "Chad",
    "countryCode": "TD",
    "type": "Mixed",
    "region": "Africa",
    "lat": 17.0416666667,
    "lng": 21.8627777778
  },
  {
    "id": "ensemble-of-the-ferapontov-monastery",
    "name": "Ensemble of the Ferapontov Monastery",
    "unescoId": 982,
    "country": "Russian Federation",
    "countryCode": "RU",
    "type": "Cultural",
    "region": "Europe and North America",
    "lat": 59.95,
    "lng": 38.56666667
  },
  {
    "id": "ensemble-of-the-novodevichy-convent",
    "name": "Ensemble of the Novodevichy Convent",
    "unescoId": 1097,
    "country": "Russian Federation",
    "countryCode": "RU",
    "type": "Cultural",
    "region": "Europe and North America",
    "lat": 55.72611111,
    "lng": 37.55508333
  },
  {
    "id": "ephesus",
    "name": "Ephesus",
    "unescoId": 1018,
    "country": "Turkey",
    "countryCode": "TR",
    "type": "Cultural",
    "region": "Europe and North America",
    "lat": 37.9291666667,
    "lng": 27.3594444444,
    "year": 2015
  },
  {
    "id": "episcopal-city-of-albi",
    "name": "Episcopal City of Albi",
    "unescoId": 1337,
    "country": "France",
    "countryCode": "FR",
    "type": "Cultural",
    "region": "Europe and North America",
    "lat": 43.9283333333,
    "lng": 2.1425
  },
  {
    "id": "episcopal-complex-of-the-euphrasian-basilica-in-the-historic",
    "name": "Episcopal Complex of the Euphrasian Basilica in the Historic Centre of Poreč",
    "unescoId": 809,
    "country": "Croatia",
    "countryCode": "HR",
    "type": "Cultural",
    "region": "Europe and North America",
    "lat": 45.22917,
    "lng": 13.59444
  },
  {
    "id": "erbil-citadel",
    "name": "Erbil Citadel",
    "unescoId": 1437,
    "country": "Iraq",
    "countryCode": "IQ",
    "type": "Cultural",
    "region": "Arab States",
    "lat": 36.1911111111,
    "lng": 44.0091666667
  },
  {
    "id": "erzgebirgekrunoho-mining-region",
    "name": "Erzgebirge/Krušnohoří Mining Region",
    "unescoId": 1478
  },
  {
    "id": "esma-museum-and-site-of-memory-former-clandestine-centre-of-",
    "name": "ESMA Museum and Site of Memory – Former Clandestine Centre of Detention, Torture and Extermination",
    "unescoId": 1681
  },
  {
    "id": "etruscan-necropolises-of-cerveteri-and-tarquinia",
    "name": "Etruscan Necropolises of Cerveteri and Tarquinia",
    "unescoId": 1158,
    "country": "Italy",
    "countryCode": "IT",
    "type": "Cultural",
    "region": "Europe and North America",
    "lat": 42.00683333,
    "lng": 12.10188889
  },
  {
    "id": "evaporitic-karst-and-caves-of-northern-apennines",
    "name": "Evaporitic Karst and Caves of Northern Apennines",
    "unescoId": 1692
  },
  {
    "id": "everglades-national-park",
    "name": "Everglades National Park",
    "unescoId": 76,
    "country": "United States of America",
    "countryCode": "US",
    "type": "Natural",
    "region": "Europe and North America",
    "lat": 25.55444444,
    "lng": -80.99638889
  },
  {
    "id": "fagus-factory-in-alfeld",
    "name": "Fagus Factory in Alfeld",
    "unescoId": 1368,
    "country": "Germany",
    "countryCode": "DE",
    "type": "Cultural",
    "region": "Europe and North America",
    "lat": 51.9836111111,
    "lng": 9.8111111111
  },
  {
    "id": "fanjingshan",
    "name": "Fanjingshan",
    "unescoId": 1559
  },
  {
    "id": "fasil-ghebbi-gondar-region",
    "name": "Fasil Ghebbi, Gondar Region",
    "unescoId": 19,
    "country": "Ethiopia",
    "countryCode": "ET",
    "type": "Cultural",
    "region": "Africa",
    "lat": 12.60692,
    "lng": 37.46617
  },
  {
    "id": "fatehpur-sikri",
    "name": "Fatehpur Sikri",
    "unescoId": 255,
    "country": "India",
    "countryCode": "IN",
    "type": "Cultural",
    "region": "Asia and the Pacific",
    "lat": 27.09444,
    "lng": 77.66417,
    "year": 1986
  },
  {
    "id": "faya-palaeolandscape",
    "name": "Faya Palaeolandscape",
    "unescoId": 1735
  },
  {
    "id": "ferrara-city-of-the-renaissance-and-its-po-delta",
    "name": "Ferrara, City of the Renaissance, and its Po Delta",
    "unescoId": 733,
    "country": "Italy",
    "countryCode": "IT",
    "type": "Cultural",
    "region": "Europe and North America",
    "lat": 44.83777778,
    "lng": 11.61944444
  },
  {
    "id": "fert-neusiedlersee-cultural-landscape",
    "name": "Fertö / Neusiedlersee Cultural Landscape",
    "unescoId": 772,
    "country": "Austria,Hungary",
    "countryCode": "AT,HU",
    "type": "Cultural",
    "region": "Europe and North America",
    "lat": 47.71927778,
    "lng": 16.72272222
  },
  {
    "id": "flemish-bguinages",
    "name": "Flemish Béguinages",
    "unescoId": 855,
    "country": "Belgium",
    "countryCode": "BE",
    "type": "Cultural",
    "region": "Europe and North America",
    "lat": 51.03097222,
    "lng": 4.47375
  },
  {
    "id": "forest-massif-of-odzala-kokoua",
    "name": "Forest Massif of Odzala-Kokoua",
    "unescoId": 692
  },
  {
    "id": "forest-research-institute-malaysia-forest-park-selangor",
    "name": "Forest Research Institute Malaysia Forest Park Selangor",
    "unescoId": 1734
  },
  {
    "id": "fort-and-shalamar-gardens-in-lahore",
    "name": "Fort and Shalamar Gardens in Lahore",
    "unescoId": 171,
    "country": "Pakistan",
    "countryCode": "PK",
    "type": "Cultural",
    "region": "Asia and the Pacific",
    "lat": 31.59027778,
    "lng": 74.30972222
  },
  {
    "id": "fort-jesus-mombasa",
    "name": "Fort Jesus, Mombasa",
    "unescoId": 1295,
    "country": "Kenya",
    "countryCode": "KE",
    "type": "Cultural",
    "region": "Africa",
    "lat": -4.0627777778,
    "lng": 39.6794444444
  },
  {
    "id": "fortifications-of-vauban",
    "name": "Fortifications of Vauban",
    "unescoId": 1283,
    "country": "France",
    "countryCode": "FR",
    "type": "Cultural",
    "region": "Europe and North America",
    "lat": 50.2825,
    "lng": 2.7588888889
  },
  {
    "id": "fortifications-on-the-caribbean-side-of-panama-portobelo-san",
    "name": "Fortifications on the Caribbean Side of Panama: Portobelo-San Lorenzo",
    "unescoId": 135,
    "country": "Panama",
    "countryCode": "PA",
    "type": "Cultural",
    "region": "Latin America and the Caribbean",
    "lat": 9.553888889,
    "lng": -79.65583333
  },
  {
    "id": "fortress-of-suomenlinna",
    "name": "Fortress of Suomenlinna",
    "unescoId": 583,
    "country": "Finland",
    "countryCode": "FI",
    "type": "Cultural",
    "region": "Europe and North America",
    "lat": 60.14722,
    "lng": 24.98722
  },
  {
    "id": "forts-and-castles-volta-greater-accra-central-and-western-re",
    "name": "Forts and Castles, Volta, Greater Accra, Central and Western Regions",
    "unescoId": 34,
    "country": "Ghana",
    "countryCode": "GH",
    "type": "Cultural",
    "region": "Africa",
    "lat": 5.39103,
    "lng": -0.49361
  },
  {
    "id": "fossil-hominid-sites-of-south-africa",
    "name": "Fossil Hominid Sites of South Africa",
    "unescoId": 915,
    "country": "South Africa",
    "countryCode": "ZA",
    "type": "Cultural",
    "region": "Africa",
    "lat": -24.15861,
    "lng": 29.17694
  },
  {
    "id": "franciscan-missions-in-the-sierra-gorda-of-quertaro",
    "name": "Franciscan Missions in the Sierra Gorda of Querétaro",
    "unescoId": 1079,
    "country": "Mexico",
    "countryCode": "MX",
    "type": "Cultural",
    "region": "Latin America and the Caribbean",
    "lat": 21.20438889,
    "lng": -99.46411111
  },
  {
    "id": "fray-bentos-industrial-landscape",
    "name": "Fray Bentos Industrial Landscape",
    "unescoId": 1464,
    "country": "Uruguay",
    "countryCode": "UY",
    "type": "Cultural",
    "region": "Latin America and the Caribbean",
    "lat": -33.1177777778,
    "lng": -58.3316666667
  },
  {
    "id": "french-austral-lands-and-seas",
    "name": "French Austral Lands and Seas",
    "unescoId": 1603
  },
  {
    "id": "from-the-great-saltworks-of-salins-les-bains-to-the-royal-sa",
    "name": "From the Great Saltworks of Salins-les-Bains to the Royal Saltworks of Arc-et-Senans, the Production of Open-pan Salt",
    "unescoId": 203,
    "country": "France",
    "countryCode": "FR",
    "type": "Cultural",
    "region": "Europe and North America",
    "lat": 46.9375,
    "lng": 5.8763888889
  },
  {
    "id": "frontiers-of-the-roman-empire",
    "name": "Frontiers of the Roman Empire",
    "unescoId": 430,
    "country": "Germany,United Kingdom of Great Britain and Northern Ireland",
    "countryCode": "DE,GB",
    "type": "Cultural",
    "region": "Europe and North America",
    "lat": 54.9926111111,
    "lng": -2.601,
    "year": 1987
  },
  {
    "id": "frontiers-of-the-roman-empire-dacia",
    "name": "Frontiers of the Roman Empire – Dacia",
    "unescoId": 1718
  },
  {
    "id": "frontiers-of-the-roman-empire-the-danube-limes-western-segme",
    "name": "Frontiers of the Roman Empire – The Danube Limes (Western Segment)",
    "unescoId": 1608
  },
  {
    "id": "frontiers-of-the-roman-empire-the-lower-german-limes",
    "name": "Frontiers of the Roman Empire – The Lower German Limes",
    "unescoId": 1631
  },
  {
    "id": "fuerte-de-samaipata",
    "name": "Fuerte de Samaipata",
    "unescoId": 883,
    "country": "Bolivia (Plurinational State of)",
    "countryCode": "BO",
    "type": "Cultural",
    "region": "Latin America and the Caribbean",
    "lat": -18.16666667,
    "lng": -63.81666667
  },
  {
    "id": "fujian-tulou",
    "name": "Fujian Tulou",
    "unescoId": 1113,
    "country": "China",
    "countryCode": "CN",
    "type": "Cultural",
    "region": "Asia and the Pacific",
    "lat": 25.0230555556,
    "lng": 117.6858333333
  },
  {
    "id": "fujisan-sacred-place-and-source-of-artistic-inspiration",
    "name": "Fujisan, sacred place and source of artistic inspiration",
    "unescoId": 1418,
    "country": "Japan",
    "countryCode": "JP",
    "type": "Cultural",
    "region": "Asia and the Pacific",
    "lat": 35.3608333333,
    "lng": 138.7275,
    "year": 2013
  },
  {
    "id": "funerary-and-memory-sites-of-the-first-world-war-western-fro",
    "name": "Funerary and memory sites of the First World War (Western Front)",
    "unescoId": 1567
  },
  {
    "id": "funerary-tradition-in-the-prehistory-of-sardinia-the-domus-d",
    "name": "Funerary Tradition in the Prehistory of Sardinia – The domus de janas",
    "unescoId": 1730
  },
  {
    "id": "galpagos-islands",
    "name": "Galápagos Islands",
    "unescoId": 1,
    "country": "Ecuador",
    "countryCode": "EC",
    "type": "Natural",
    "region": "Latin America and the Caribbean",
    "lat": -0.81667,
    "lng": -91,
    "year": 1978
  },
  {
    "id": "gamzigrad-romuliana-palace-of-galerius",
    "name": "Gamzigrad-Romuliana, Palace of Galerius",
    "unescoId": 1253,
    "country": "Serbia",
    "countryCode": "RS",
    "type": "Cultural",
    "region": "Europe and North America",
    "lat": 43.8993055556,
    "lng": 22.1861111111
  },
  {
    "id": "garajonay-national-park",
    "name": "Garajonay National Park",
    "unescoId": 380,
    "country": "Spain",
    "countryCode": "ES",
    "type": "Natural",
    "region": "Europe and North America",
    "lat": 28.12625,
    "lng": -17.23722222
  },
  {
    "id": "garamba-national-park",
    "name": "Garamba National Park",
    "unescoId": 136,
    "country": "Democratic Republic of the Congo",
    "countryCode": "CD",
    "type": "Natural",
    "region": "Africa",
    "lat": 4,
    "lng": 29.25
  },
  {
    "id": "garden-kingdom-of-dessau-wrlitz",
    "name": "Garden Kingdom of Dessau-Wörlitz",
    "unescoId": 534,
    "country": "Germany",
    "countryCode": "DE",
    "type": "Cultural",
    "region": "Europe and North America",
    "lat": 51.8425,
    "lng": 12.42083
  },
  {
    "id": "gardens-and-castle-at-krom",
    "name": "Gardens and Castle at Kroměříž",
    "unescoId": 860,
    "country": "Czechia",
    "countryCode": "CZ",
    "type": "Cultural",
    "region": "Europe and North America",
    "lat": 49.3,
    "lng": 17.37722222
  },
  {
    "id": "garrison-border-town-of-elvas-and-its-fortifications",
    "name": "Garrison Border Town of Elvas and its Fortifications",
    "unescoId": 1367,
    "country": "Portugal",
    "countryCode": "PT",
    "type": "Cultural",
    "region": "Europe and North America",
    "lat": 38.8806194444,
    "lng": -7.1633222222
  },
  {
    "id": "gaya-tumuli",
    "name": "Gaya Tumuli",
    "unescoId": 1666
  },
  {
    "id": "gebel-barkal-and-the-sites-of-the-napatan-region",
    "name": "Gebel Barkal and the Sites of the Napatan Region",
    "unescoId": 1073,
    "country": "Sudan",
    "countryCode": "SD",
    "type": "Cultural",
    "region": "Arab States",
    "lat": 18.53333333,
    "lng": 31.81666667
  },
  {
    "id": "gelati-monastery",
    "name": "Gelati Monastery",
    "unescoId": 710,
    "country": "Georgia",
    "countryCode": "GE",
    "type": "Cultural",
    "region": "Europe and North America",
    "lat": 42.26222,
    "lng": 42.71639
  },
  {
    "id": "genoa-le-strade-nuove-and-the-system-of-the-palazzi-dei-roll",
    "name": "Genoa: Le Strade Nuove and the system of the Palazzi dei Rolli",
    "unescoId": 1211,
    "country": "Italy",
    "countryCode": "IT",
    "type": "Cultural",
    "region": "Europe and North America",
    "lat": 44.4122222222,
    "lng": 8.9311111111
  },
  {
    "id": "getbol-korean-tidal-flats",
    "name": "Getbol, Korean Tidal Flats",
    "unescoId": 1591
  },
  {
    "id": "giants-causeway-and-causeway-coast",
    "name": "Giant's Causeway and Causeway Coast",
    "unescoId": 369,
    "country": "United Kingdom of Great Britain and Northern Ireland",
    "countryCode": "GB",
    "type": "Natural",
    "region": "Europe and North America",
    "lat": 55.25,
    "lng": -6.485277778,
    "year": 1986
  },
  {
    "id": "gbekli-tepe",
    "name": "Göbekli Tepe",
    "unescoId": 1572
  },
  {
    "id": "gobustan-rock-art-cultural-landscape",
    "name": "Gobustan Rock Art Cultural Landscape",
    "unescoId": 1076,
    "country": "Azerbaijan",
    "countryCode": "AZ",
    "type": "Cultural",
    "region": "Europe and North America",
    "lat": 40.125,
    "lng": 49.375
  },
  {
    "id": "gochang-hwasun-and-ganghwa-dolmen-sites",
    "name": "Gochang, Hwasun and Ganghwa Dolmen Sites",
    "unescoId": 977,
    "country": "Republic of Korea",
    "countryCode": "KR",
    "type": "Cultural",
    "region": "Asia and the Pacific",
    "lat": 34.96667,
    "lng": 126.92917
  },
  {
    "id": "gola-tiwai-complex",
    "name": "Gola-Tiwai Complex",
    "unescoId": 1746
  },
  {
    "id": "golden-mountains-of-altai",
    "name": "Golden Mountains of Altai",
    "unescoId": 768,
    "country": "Russian Federation",
    "countryCode": "RU",
    "type": "Natural",
    "region": "Europe and North America",
    "lat": 50.46666667,
    "lng": 86
  },
  {
    "id": "golestan-palace",
    "name": "Golestan Palace",
    "unescoId": 1422,
    "country": "Iran (Islamic Republic of)",
    "countryCode": "IR",
    "type": "Cultural",
    "region": "Asia and the Pacific",
    "lat": 35.6803666667,
    "lng": 51.4205111111
  },
  {
    "id": "gonbad-e-qbus",
    "name": "Gonbad-e Qābus",
    "unescoId": 1398,
    "country": "Iran (Islamic Republic of)",
    "countryCode": "IR",
    "type": "Cultural",
    "region": "Asia and the Pacific",
    "lat": 37.2580277778,
    "lng": 55.169
  },
  {
    "id": "gondwana-rainforests-of-australia",
    "name": "Gondwana Rainforests of Australia",
    "unescoId": 368,
    "country": "Australia",
    "countryCode": "AU",
    "type": "Natural",
    "region": "Asia and the Pacific",
    "lat": -28.25,
    "lng": 150.05
  },
  {
    "id": "gordion",
    "name": "Gordion",
    "unescoId": 1669
  },
  {
    "id": "greme-national-park-and-the-rock-sites-of-cappadocia",
    "name": "Göreme National Park and the Rock Sites of Cappadocia",
    "unescoId": 357,
    "country": "Turkey",
    "countryCode": "TR",
    "type": "Mixed",
    "region": "Europe and North America",
    "lat": 38.66667,
    "lng": 34.85,
    "year": 1985
  },